Practice_Code,GP_Practice_Name,Practice_Postcode,Latitude,Longitude,ICB,ICBname,RCode,Region,LAD,LADname,Registered Patients,G&A WP,CS WP,MH WP,Mat WP,Health Ineq WP,Prescr WP,Core WP,Primary Medical Care WP,Final PMC WP
E82004,HATFIELD ROAD SURGERY,AL1 3FY,51.747468,-0.326496,T01,NHS Central East ICB,Y61,East of England,E07000240,St Albans,5157.516217,3405.072084,2256.930519,4695.615012,6747.623199,3669.51454,3427.387397,3731.018185,3995.055141,3946.224051
E82060,PARKBURY HOUSE SURGERY,AL1 3HD,51.756605,-0.334142,T01,NHS Central East ICB,Y61,East of England,E07000240,St Albans,22295.61581,17226.788,14019.88035,15809.353,22457.49529,14609.79154,17301.49377,17255.46512,19196.53761,18508.5257
E82031,MALTINGS SURGERY,AL1 3JB,51.751851,-0.337918,T01,NHS Central East ICB,Y61,East of England,E07000240,St Albans,18784.13489,14560.4224,11730.43708,15311.97565,24361.9866,13129.56254,13916.08534,15063.58998,16814.75997,16261.98036
E82002,WRAFTON HOUSE SURGERY,AL10 0BS,51.766269,-0.227021,T01,NHS Central East ICB,Y61,East of England,E07000241,Welwyn Hatfield,10684.02927,9487.950657,8841.455567,10878.9686,10476.06368,9378.098431,9953.076807,9995.033998,10291.49601,10154.48637
E82018,LISTER HOUSE SURGERY,AL10 0NL,51.764574,-0.227126,T01,NHS Central East ICB,Y61,East of England,E07000241,Welwyn Hatfield,14855.50922,12906.76386,11409.33889,14208.44446,14570.81299,13077.51837,13490.91471,13494.12052,13923.70901,13796.78041
E82023,BURVILL HOUSE SURGERY,AL10 8HP,51.761302,-0.22721,T01,NHS Central East ICB,Y61,East of England,E07000241,Welwyn Hatfield,12450.07754,9432.220859,7785.800355,10587.49499,12051.06038,11085.80958,9624.899846,10032.23718,10875.56666,10907.1031
E82113,VERULAM MEDICAL GROUP,AL2 1ES,51.724886,-0.302218,T01,NHS Central East ICB,Y61,East of England,E07000240,St Albans,7280.415973,5854.915521,4702.495126,4772.311143,9232.992877,5283.120827,5851.867595,5873.00858,6615.373564,6415.535653
E82107,SUMMERFIELD HEALTH CENTRE,AL2 1PU,51.722849,-0.299636,T01,NHS Central East ICB,Y61,East of England,E07000240,St Albans,10444.24765,9423.107608,7378.843351,9311.898141,11798.24818,7047.379145,9883.272005,9396.684705,9656.624177,9265.237422
E82055,MIDWAY SURGERY,AL2 3JX,51.733852,-0.355421,T01,NHS Central East ICB,Y61,East of England,E07000240,St Albans,13620.79641,13853.25662,13823.71034,9068.555095,11498.67366,8456.199816,13122.43012,12996.6433,13591.18382,12820.93622
E82084,HARVEY GROUP PRACTICE,AL3 5HB,51.754148,-0.340152,T01,NHS Central East ICB,Y61,East of England,E07000240,St Albans,14284.96341,12255.87121,10559.77472,10087.5231,11268.31472,9425.032071,11894.63171,11860.89198,12704.31356,12212.42134
E82059,GRANGE STREET SURGERY,AL3 5NF,51.757298,-0.335878,T01,NHS Central East ICB,Y61,East of England,E07000240,St Albans,10611.19458,9688.220784,8760.215506,7594.959725,9563.152115,7089.983384,9275.430619,9347.877329,9964.011362,9532.907165
E82014,"LODGE,HIGHFIELD & REDBOURN",AL3 5NP,51.759812,-0.341544,T01,NHS Central East ICB,Y61,East of England,E07000240,St Albans,19902.03645,18251.07907,16566.31462,17011.14805,19069.84898,13152.05875,18740.9181,18085.42172,18806.79705,17958.5863
E82037,VILLAGE SURGERY,AL5 2BT,51.814184,-0.357349,T01,NHS Central East ICB,Y61,East of England,E07000240,St Albans,15629.18925,14286.32136,15392.99209,8668.018265,10640.62347,8780.8768,14053.15781,13465.5177,15715.79641,14675.55847
E82077,DAVENPORT HOUSE SURGERY,AL5 4HX,51.816177,-0.354549,T01,NHS Central East ICB,Y61,East of England,E07000240,St Albans,12743.67296,10212.44097,10607.23104,5773.867135,10027.73202,7069.992161,10609.96796,9757.11023,11825.60139,11112.26
E82071,ELMS MEDICAL PRACTICE,AL5 4QA,51.818895,-0.352007,T01,NHS Central East ICB,Y61,East of England,E07000240,St Albans,17152.67055,12917.08622,11749.84256,8542.56395,14672.61179,9664.9413,12929.60321,12443.44553,15466.78256,14596.50637
E82019,BRIDGE COTTAGE SURGERY,AL6 9EF,51.830002,-0.215995,T01,NHS Central East ICB,Y61,East of England,E07000241,Welwyn Hatfield,15771.11868,16482.78872,17950.68211,10337.70372,10721.33053,8945.874808,17257.91497,15482.41342,17017.84009,15807.0453
E82040,PEARTREE LANE SURGERY,AL7 3UJ,51.797042,-0.197979,T01,NHS Central East ICB,Y61,East of England,E07000241,Welwyn Hatfield,21444.03922,21266.26734,18837.48548,21191.70542,22709.73973,19332.49733,22120.43008,21625.7424,20507.99298,20331.66863
Y02639,SPRING HOUSE HEALTH,AL7 4HL,51.782567,-0.191727,T01,NHS Central East ICB,Y61,East of England,E07000241,Welwyn Hatfield,9865.580583,6845.931085,4303.034862,7386.900212,11592.08867,8167.394721,7190.303701,7241.397736,8178.587642,8176.908704
E82062,HALL GROVE GROUP PRACTICE,AL7 4PL,51.78932,-0.181801,T01,NHS Central East ICB,Y61,East of England,E07000241,Welwyn Hatfield,16134.84482,16160.59848,17079.17859,14306.66425,16143.75839,12733.61059,17600.35472,16330.05686,16358.73711,15814.96813
E82041,THE GARDEN CITY PRACTICE,AL8 6EH,51.797151,-0.209287,T01,NHS Central East ICB,Y61,East of England,E07000241,Welwyn Hatfield,12658.69008,10424.09778,9624.191696,10269.20225,15142.06313,9250.702268,11474.31661,10834.90267,11661.20821,11299.63232
E82058,POTTERELLS MEDICAL CENTRE,AL9 7SN,51.726922,-0.208602,T01,NHS Central East ICB,Y61,East of England,E07000241,Welwyn Hatfield,16996.11215,11185.97205,11001.86537,7272.083533,15346.73558,13598.92107,10735.22959,11486.09957,15779.54029,15452.4474
M85797,HOCKLEY MEDICAL PRACTICE,B1 3AL,52.485934,-1.91535,QHL,NHS Birmingham and Solihull ICB,Y60,Midlands,E08000025,Birmingham,11303.59776,8309.176079,5625.490321,24407.9998,14825.50178,17455.4216,6488.424394,10937.92231,11723.90155,12583.62956
M85146,THE KHATTAK MEMORIAL SURGERY,B10 0AU,52.465722,-1.861403,QHL,NHS Birmingham and Solihull ICB,Y60,Midlands,E08000025,Birmingham,6377.54587,5549.43994,4329.434381,8211.838106,9435.1997,8106.626675,5942.943272,6101.792445,6281.154741,6554.975531
M85024,THE LIMES MEDICAL CENTRE,B10 0BS,52.467108,-1.862252,QHL,NHS Birmingham and Solihull ICB,Y60,Midlands,E08000025,Birmingham,7129.824037,6065.836072,5743.779341,10635.27337,9888.065793,10981.04413,6425.739026,7169.605498,6976.118213,7576.8571
M85005,THE PARK MEDICAL CENTRE,B10 0JL,52.466336,-1.848418,QHL,NHS Birmingham and Solihull ICB,Y60,Midlands,E08000025,Birmingham,7683.497061,7060.027245,6198.472108,10320.24094,10251.83071,10184.47689,6881.49527,7678.660847,7471.724486,7878.637347
M85749,AUBREY ROAD MEDICAL CENTRE,B10 0TU,52.46633,-1.846411,QHL,NHS Birmingham and Solihull ICB,Y60,Midlands,E08000025,Birmingham,3131.627613,2712.507038,2416.819186,3175.909762,4081.170157,4038.269054,2767.017374,2887.660968,3005.875498,3160.734531
M85699,COVENTRY ROAD MEDICAL CENTRE,B10 0UG,52.47013,-1.859073,QHL,NHS Birmingham and Solihull ICB,Y60,Midlands,E08000025,Birmingham,5280.033334,4784.224674,4265.617363,7213.582157,6870.555302,7175.300398,4949.292603,5282.459677,4954.324486,5287.470873
M85679,CHARLES ROAD SURGERY,B10 9AB,52.4722,-1.850621,QHL,NHS Birmingham and Solihull ICB,Y60,Midlands,E08000025,Birmingham,5713.031638,4729.338663,4712.144124,6603.167185,8444.926284,6958.046745,4862.053698,5260.779367,5477.229266,5699.351888
M85108,SMALL HEATH MEDICAL PRACTICE,B10 9QE,52.472555,-1.861882,QHL,NHS Birmingham and Solihull ICB,Y60,Midlands,E08000025,Birmingham,6075.032088,5691.610881,5169.401912,9926.721117,8542.808515,8042.677422,5891.690037,6424.734479,6143.265274,6428.177097
M85174,THE BROOK SURGERY,B11 1LU,52.462659,-1.871333,QHL,NHS Birmingham and Solihull ICB,Y60,Midlands,E08000025,Birmingham,4493.125103,3999.840665,3246.611146,6712.159921,5844.210241,5907.565259,4087.468509,4463.49229,4510.113265,4719.731064
M85794,"THE BALAJI SURGERY, THE SPARKBROOK CHC",B11 1LU,52.462659,-1.871333,QHL,NHS Birmingham and Solihull ICB,Y60,Midlands,E08000025,Birmingham,4124.215806,3468.132918,2570.565138,4954.897008,5899.175699,5183.52993,3874.979047,3802.990998,3931.331654,4119.161395
M85735,GREET MEDICAL PRACTICE,B11 3ND,52.453195,-1.857778,QHL,NHS Birmingham and Solihull ICB,Y60,Midlands,E08000025,Birmingham,6343.840606,5028.552144,3999.639185,7055.819131,9090.087459,7504.932522,5393.969007,5530.275382,5918.267868,6156.267566
M85116,FERNLEY MEDICAL CENTRE,B11 4AN,52.451603,-1.864567,QHL,NHS Birmingham and Solihull ICB,Y60,Midlands,E08000025,Birmingham,8496.709031,7621.837311,7364.114536,10307.86708,10811.62585,9683.441485,8346.858309,8190.401476,8369.579636,8566.658913
M85078,OAKWOOD SURGERY,B11 4BW,52.444556,-1.858645,QHL,NHS Birmingham and Solihull ICB,Y60,Midlands,E08000025,Birmingham,10383.86771,8579.632543,7850.389195,12326.30167,11775.67152,12166.84481,9980.989005,9427.080486,9603.287102,9987.820759
M85774,SPRINGFIELD SURGERY,B11 4BW,52.444556,-1.858645,QHL,NHS Birmingham and Solihull ICB,Y60,Midlands,E08000025,Birmingham,7418.929267,5743.263356,4095.620343,8541.639282,10355.85346,8251.917368,5885.761811,6272.104749,6731.999074,6959.986818
Y05826,THE HILL GP PRACTICE,B11 4BW,52.444556,-1.858645,QHL,NHS Birmingham and Solihull ICB,Y60,Midlands,E08000025,Birmingham,6356.052104,4145.71796,2563.262488,7517.044287,8654.640971,7179.542827,4179.045213,4828.360268,5734.761853,5951.478999
M85756,SPRINGFIELD MEDICAL PRACT,B11 4DG,52.444953,-1.859629,QHL,NHS Birmingham and Solihull ICB,Y60,Midlands,E08000025,Birmingham,2776.042345,2465.610087,2380.592711,3644.00213,2801.963133,3120.185994,2550.943934,2649.394827,2731.582673,2789.873172
M85153,WEATHER OAK MEDICAL CENTRE,B11 4RA,52.45691,-1.867538,QHL,NHS Birmingham and Solihull ICB,Y60,Midlands,E08000025,Birmingham,3836.766301,3043.711437,2839.768456,5533.56303,5959.555575,4468.313699,3270.943173,3558.049978,3927.354706,4008.498555
M85084,THE WAND MEDICAL CENTRE,B12 0UF,52.464187,-1.888682,QHL,NHS Birmingham and Solihull ICB,Y60,Midlands,E08000025,Birmingham,6376.729284,6422.77148,6110.69315,13121.53921,8716.789027,9892.621799,6605.396942,7554.535875,6757.244133,7227.550783
M85713,HIGHGATE MEDICAL CENTRE,B12 0YA,52.464365,-1.88746,QHL,NHS Birmingham and Solihull ICB,Y60,Midlands,E08000025,Birmingham,5212.714933,4842.781202,4116.127559,7835.113662,7636.762355,7183.577712,5139.470426,5420.665085,5164.764453,5467.586442
M85164,NEWPORT MEDICAL GROUP,B12 8QE,52.45223,-1.879633,QHL,NHS Birmingham and Solihull ICB,Y60,Midlands,E08000025,Birmingham,13454.86505,11684.74466,10971.13532,18124.99464,17743.68638,16966.06323,13014.85893,13094.39958,13607.748,14111.49529
M85051,FIRSTCARE PRACTICE,B12 9LP,52.457404,-1.888061,QHL,NHS Birmingham and Solihull ICB,Y60,Midlands,E08000025,Birmingham,7502.872097,6369.352215,5032.66923,10936.83907,10542.14044,9122.86809,7073.850022,7196.756146,7953.92547,8129.266863
M85128,DR WALJI AND COLLEAGUES,B12 9LP,52.457404,-1.888061,QHL,NHS Birmingham and Solihull ICB,Y60,Midlands,E08000025,Birmingham,5084.213853,5372.481934,4922.837836,9988.358038,6011.739563,6264.496543,5579.127392,5926.240687,5193.27259,5353.956183
M85766,BALSALL HEATH HEALTH CENTRE (S),B12 9LP,52.457404,-1.888061,QHL,NHS Birmingham and Solihull ICB,Y60,Midlands,E08000025,Birmingham,4225.225863,3567.795769,2996.004098,6440.754884,5917.35797,5299.090909,3659.233831,4077.103572,4085.804308,4267.797299
M85783,STRENSHAM ROAD SURGERY,B12 9RR,52.453843,-1.892563,QHL,NHS Birmingham and Solihull ICB,Y60,Midlands,E08000025,Birmingham,5664.607111,4404.110147,3169.649157,7910.539674,7314.084184,7269.421709,4364.159803,5041.278157,5279.493589,5577.982807
M85006,GREEN RIDGE SURGERY,B13 0HN,52.428433,-1.871035,QHL,NHS Birmingham and Solihull ICB,Y60,Midlands,E08000025,Birmingham,10495.08681,11955.7726,11106.48586,15297.85601,12498.8424,15059.44421,11754.47207,12390.97956,11543.81385,12071.15841
M85021,MOSELEY MEDICAL CENTRE,B13 8JS,52.446459,-1.889786,QHL,NHS Birmingham and Solihull ICB,Y60,Midlands,E08000025,Birmingham,4418.73073,3726.350733,2843.542033,7891.26495,6941.041492,5357.115857,3179.190751,4332.994303,4444.509117,4581.400128
M85733,MOOR GREEN LANE MEDICAL CENTRE,B13 8QS,52.438179,-1.910533,QHL,NHS Birmingham and Solihull ICB,Y60,Midlands,E08000025,Birmingham,7200.720586,6271.665879,5617.351448,7139.87802,8476.638065,7977.257148,6487.452679,6491.101188,7072.390023,7208.120092
M85074,WAKE GREEN SURGERY,B13 9HD,52.446103,-1.883357,QHL,NHS Birmingham and Solihull ICB,Y60,Midlands,E08000025,Birmingham,7982.233813,8531.633459,8467.165292,12925.88383,7719.617425,9247.679903,8295.866306,8947.040255,8773.053708,8844.247638
M85018,YARDLEY WOOD HEALTH CENTRE,B14 4DU,52.418648,-1.859168,QHL,NHS Birmingham and Solihull ICB,Y60,Midlands,E08000025,Birmingham,10505.80012,12529.64717,14338.5258,11602.95234,11667.27364,13494.70631,12671.76293,12456.7761,11764.26675,12023.83268
M85179,MAYPOLE HEALTH SURGERY Y,B14 5DJ,52.409739,-1.884717,QHL,NHS Birmingham and Solihull ICB,Y60,Midlands,E08000025,Birmingham,4936.853529,5759.673702,6377.837264,5689.116291,6410.142413,6345.840609,5669.068944,5790.549941,5565.937014,5682.922554
M85136,DRUIDS HEATH SURGERY,B14 5SB,52.405307,-1.898789,QHL,NHS Birmingham and Solihull ICB,Y60,Midlands,E08000025,Birmingham,10896.64248,11813.02695,9954.887514,20995.57436,15674.43688,15062.22153,11915.84489,13010.96776,11024.97325,11630.56049
M85037,KINGSFIELD MEDICAL CENTRE,B14 6AA,52.427278,-1.89301,QHL,NHS Birmingham and Solihull ICB,Y60,Midlands,E08000025,Birmingham,9341.742454,10863.38385,11192.68867,8920.964231,8613.483167,9477.312651,10410.14735,10203.62802,9691.511475,9659.381651
M85693,FEATHERSTONE MEDICAL CENTRE,B14 6AA,52.427278,-1.89301,QHL,NHS Birmingham and Solihull ICB,Y60,Midlands,E08000025,Birmingham,2461.262151,2398.949021,2285.992459,2941.496203,2881.095435,2734.552373,2526.420923,2476.847143,2487.32341,2524.407754
Y02571,POPLAR PRIMARY CARE CENTRE,B14 7AG,52.43631,-1.890326,QHL,NHS Birmingham and Solihull ICB,Y60,Midlands,E08000025,Birmingham,8292.743959,7529.176756,5959.535398,12127.4022,10575.69294,8811.163884,7180.493117,8027.034252,8029.458813,8146.714574
M85025,BATH ROW MEDICAL PRACTICE,B15 1LZ,52.472642,-1.908471,QHL,NHS Birmingham and Solihull ICB,Y60,Midlands,E08000025,Birmingham,16172.30333,10827.44219,8441.89088,31600.43105,13193.47833,25603.49548,8812.496021,14454.21003,16238.78123,17643.48837
Y01057,HOMELESS HEALTH EXCHANGE,B15 1LZ,52.472642,-1.908471,QHL,NHS Birmingham and Solihull ICB,Y60,Midlands,E08000025,Birmingham,1232.068011,1947.176303,464.9805128,1878.693284,491.948658,1918.335372,1489.860339,1654.43932,1236.518399,1338.790945
M85167,UNIVERSITY MEDICAL PRACTICE,B15 2QU,52.456371,-1.938054,QHL,NHS Birmingham and Solihull ICB,Y60,Midlands,E08000025,Birmingham,14887.32407,6915.953012,6673.013272,10229.11733,9537.077044,12560.96767,5235.540004,7820.836621,13030.73978,12960.27396
M85706,DRUID GROUP - EMC SURGERY,B16 0HZ,52.485847,-1.943953,QHL,NHS Birmingham and Solihull ICB,Y60,Midlands,E08000025,Birmingham,14177.09374,13770.18491,11467.97185,15889.42905,18903.31054,23470.87053,13912.35812,14758.28093,14193.09028,15584.75732
M85098,ROTTON PARK MEDICAL CENTRE,B16 0LU,52.482162,-1.947079,QHL,NHS Birmingham and Solihull ICB,Y60,Midlands,E08000025,Birmingham,5338.900554,4141.17472,4117.403134,7820.432068,5997.298307,7146.215839,4155.881253,4910.440274,5288.10836,5566.824482
M85088,KARIS MEDICAL CENTRE,B16 9AL,52.474621,-1.931659,QHL,NHS Birmingham and Solihull ICB,Y60,Midlands,E08000025,Birmingham,17713.26107,15040.08273,13321.78869,33378.10885,16748.65171,21883.81973,13904.31659,17566.62976,18065.69418,18638.41301
M85058,HARBORNE MEDICAL PRACTICE,B17 0HG,52.458581,-1.946283,QHL,NHS Birmingham and Solihull ICB,Y60,Midlands,E08000025,Birmingham,16228.66596,13372.83755,12601.89297,18330.16874,17401.61301,16432.48814,11577.44795,14019.57224,14946.24681,15169.18301
M88020,SHERWOOD HOUSE MEDICAL PRACTICE,B17 8DP,52.473851,-1.959426,QHL,NHS Birmingham and Solihull ICB,Y60,Midlands,E08000025,Birmingham,12769.918,12908.45339,15361.53005,13612.00197,11505.46752,12472.98664,12607.8805,12917.18377,13400.87909,13261.69522
M85711,CITY HEALTH CENTRE,B17 8LG,52.476692,-1.958202,QHL,NHS Birmingham and Solihull ICB,Y60,Midlands,E08000025,Birmingham,3826.111186,2970.832728,2196.444978,3913.663855,5499.619772,4269.060776,2693.175028,3174.575385,3845.9251,3909.395451
M85028,LORDSWOOD HOUSE GROUP MEDICAL PRACTICE,B17 9DB,52.459054,-1.961221,QHL,NHS Birmingham and Solihull ICB,Y60,Midlands,E08000025,Birmingham,25008.18525,25873.23675,26431.66566,27327.63261,26413.87059,22862.0512,23562.9079,25221.7965,26540.00178,25988.30919
M85684,CITY ROAD MEDICAL CENTRE,B18 4HL,52.486277,-1.942009,QHL,NHS Birmingham and Solihull ICB,Y60,Midlands,E08000025,Birmingham,3989.633342,2240.594966,1899.265434,5771.057957,6714.693423,6239.128489,2029.52048,3177.923489,3922.595051,4270.075067
M85642,CAVENDISH MEDICAL PRACTICE,B18 7AL,52.487686,-1.937353,QHL,NHS Birmingham and Solihull ICB,Y60,Midlands,E08000025,Birmingham,5705.316883,5561.97806,5548.12295,6747.020129,6677.06511,9185.603879,5786.686148,6045.10629,5932.098262,6420.124104
M85686,DR KULSHRESTHA FAMILY PRACTICE,B18 7AL,52.487686,-1.937353,QHL,NHS Birmingham and Solihull ICB,Y60,Midlands,E08000025,Birmingham,1502.120005,1370.297882,1221.776902,2470.195718,1620.075792,2406.878532,1551.443388,1597.349174,1511.726584,1645.999377
Y00492,SUMMERFIELD GROUP PRACTICE,B18 7AL,52.487686,-1.937353,QHL,NHS Birmingham and Solihull ICB,Y60,Midlands,E08000025,Birmingham,8815.237519,5534.91716,3250.147268,13950.40375,11268.91996,14337.86565,5103.046625,7346.785448,8040.226118,8984.872047
Y06378,HEATH STREET HEALTH CENTRE,B18 7AL,52.487686,-1.937353,QHL,NHS Birmingham and Solihull ICB,Y60,Midlands,E08000025,Birmingham,6974.329019,5225.006561,4291.963578,8624.360255,8390.860052,11630.06636,5027.229489,6230.01998,6530.746973,7295.644882
Y00471,BROADWAY HEALTH CENTRE,B18 7BA,52.482794,-1.924117,QHL,NHS Birmingham and Solihull ICB,Y60,Midlands,E08000025,Birmingham,7633.497597,5777.655385,5394.308496,16801.93322,7893.447151,11495.28703,5481.564258,7655.163563,8005.03499,8528.572795
M85178,MODALITY BIRMINGHAM,B19 1BP,52.501203,-1.920535,QHL,NHS Birmingham and Solihull ICB,Y60,Midlands,E08000025,Birmingham,22397.59039,22145.86101,19166.61487,60070.02836,45839.23736,34122.24052,21685.89635,28131.31043,22589.13632,24319.10195
M85634,HEATHFIELD FAMILY CENTRE,B19 1HL,52.506341,-1.910086,QHL,NHS Birmingham and Solihull ICB,Y60,Midlands,E08000025,Birmingham,9822.510147,8019.921401,8083.313992,15977.66304,13221.86449,15453.7203,8442.211156,9876.829806,10382.06451,11142.81288
M85154,FINCH ROAD PRIMARY CARE CENTRE,B19 1HS,52.50377,-1.910474,QHL,NHS Birmingham and Solihull ICB,Y60,Midlands,E08000025,Birmingham,4474.397412,3697.771038,3239.233357,5621.272234,5721.151129,7169.572585,3757.641352,4264.352402,4251.333514,4689.069375
M85701,BURBURY MEDICAL CENTRE,B19 1TT,52.502215,-1.910374,QHL,NHS Birmingham and Solihull ICB,Y60,Midlands,E08000025,Birmingham,4767.887622,3671.523957,2935.363785,6547.119621,6834.321776,7970.547465,3747.100075,4458.598161,4575.245824,5084.541071
M85020,RAYDOCS NEWTOWN,B19 2ET,52.500938,-1.903168,QHL,NHS Birmingham and Solihull ICB,Y60,Midlands,E08000025,Birmingham,20659.80819,17000.37574,15160.07349,41183.47635,27374.14409,35352.98037,17206.97828,21784.99013,20301.76541,22559.44766
M85778,HALCYON MEDICAL,B2 4UH,52.480596,-1.895747,QHL,NHS Birmingham and Solihull ICB,Y60,Midlands,E08000025,Birmingham,17450.62149,7179.661437,5416.442191,24808.44813,14400.72265,29754.37543,5189.621811,11566.18231,15446.96961,17593.08049
M85002,HANDSWORTH WOOD MED.CTR.,B20 2ES,52.513033,-1.928196,QHL,NHS Birmingham and Solihull ICB,Y60,Midlands,E08000025,Birmingham,10355.09228,8754.972818,7684.714426,20254.5248,1.138855387,13426.19924,8554.42196,10055.93632,9436.710034,10035.13341
M85145,THE SLIEVE SURGERY,B20 2NR,52.520008,-1.927168,QHL,NHS Birmingham and Solihull ICB,Y60,Midlands,E08000025,Birmingham,9543.15371,8219.101193,9094.293282,11589.14777,11731.79689,10564.72839,8615.93182,9008.395939,10090.74462,10161.84218
M85009,HAMSTEAD ROAD SURGERY,B20 2QR,52.504501,-1.918982,QHL,NHS Birmingham and Solihull ICB,Y60,Midlands,E08000025,Birmingham,6595.948666,6304.374726,7874.451363,9908.692262,7346.524441,8347.570751,6502.816531,7069.036112,7028.542905,7226.397082
M85721,HOLYHEAD PRIMARY HEALTH CARE CENTRE,B21 0HL,52.505698,-1.948304,QHL,NHS Birmingham and Solihull ICB,Y60,Midlands,E08000025,Birmingham,11025.10116,5995.542652,4927.40625,17202.24207,13372.4798,16056.40623,5393.678456,8467.560054,10424.67853,11269.43768
M85082,HANDSWORTH MEDICAL PRACT.,B21 9NH,52.505414,-1.94158,QHL,NHS Birmingham and Solihull ICB,Y60,Midlands,E08000025,Birmingham,5466.065588,3867.856033,3588.536066,7469.501377,7473.525889,7974.731135,3844.543043,4784.442792,5360.1688,5752.35315
M85176,KIRPAL MEDICAL PRACTICE,B21 9RY,52.503094,-1.934945,QHL,NHS Birmingham and Solihull ICB,Y60,Midlands,E08000025,Birmingham,5503.775589,4385.089141,4367.515228,8472.095136,7023.924246,8107.619147,4473.23134,5310.686348,5733.566929,6089.674762
M85715,SOHO ROAD PRIMARY CARE CENTRE,B21 9RY,52.503094,-1.934945,QHL,NHS Birmingham and Solihull ICB,Y60,Midlands,E08000025,Birmingham,11323.2037,8797.52801,8553.831391,15809.92378,14328.84946,17062.55729,8673.265844,10548.0881,11060.20194,11960.55524
M85757,SOHO ROAD HEALTH CENTRE,B21 9RY,52.503094,-1.934945,QHL,NHS Birmingham and Solihull ICB,Y60,Midlands,E08000025,Birmingham,4130.840037,2895.587014,2453.475432,5872.544103,5720.260694,6243.603106,2927.0592,3629.196363,4048.32759,4377.618917
Y00412,SOHO HEALTH CENTRE,B21 9RY,52.503094,-1.934945,QHL,NHS Birmingham and Solihull ICB,Y60,Midlands,E08000025,Birmingham,5781.996244,4909.215098,4599.397428,9006.49593,7181.622257,8556.706954,4798.063154,5755.711853,5908.192123,6305.469348
M85081,THE DOVE MEDICAL PRACTICE,B23 5DD,52.535155,-1.864605,QHL,NHS Birmingham and Solihull ICB,Y60,Midlands,E08000025,Birmingham,9273.90138,11620.48458,11316.55838,12701.49688,11100.13447,16842.77779,11387.31593,11996.8584,10071.39753,11087.10457
M85115,SUTTON ROAD SURGERY,B23 5TJ,52.534308,-1.828592,QHL,NHS Birmingham and Solihull ICB,Y60,Midlands,E08000025,Birmingham,2125.121881,2387.500057,2392.209198,3699.325445,2770.217949,2721.132176,2499.072528,2569.831895,2724.309153,2723.832606
M85070,RESERVOIR ROAD SURGERY,B23 6DJ,52.523882,-1.857329,QHL,NHS Birmingham and Solihull ICB,Y60,Midlands,E08000025,Birmingham,13607.02048,13905.89737,12702.50221,23292.5908,16771.17978,25202.32041,13432.38111,15918.86316,14415.7555,16033.74023
M85669,TUDOR PRACTICE STOCKLAND GREEN,B23 6DJ,52.523882,-1.857329,QHL,NHS Birmingham and Solihull ICB,Y60,Midlands,E08000025,Birmingham,7310.201222,7333.020719,4312.982363,15094.36788,12008.43041,14278.07961,5902.467506,8619.644335,7685.841132,8674.676905
M85716,DR KHUROO'S PRACTICE,B23 6DJ,52.523882,-1.857329,QHL,NHS Birmingham and Solihull ICB,Y60,Midlands,E08000025,Birmingham,5237.307161,4583.642683,3497.814957,8228.216647,6386.988081,10145.86052,4369.533686,5467.872993,5325.852539,6048.853735
M85063,MIDLANDS MEDICAL PARTNERSHIP,B24 0SY,52.519802,-1.81313,QHL,NHS Birmingham and Solihull ICB,Y60,Midlands,E08000025,Birmingham,58157.15261,66403.95044,65126.34816,79913.58672,59908.49936,84932.05723,65057.4614,68271.60722,60952.85326,64549.73385
M85014,KINGSBURY ROAD MEDICAL CENTRE,B24 8RD,52.515318,-1.838716,QHL,NHS Birmingham and Solihull ICB,Y60,Midlands,E08000025,Birmingham,4081.391761,4117.955514,3897.231809,5255.922517,5441.952153,8689.962426,3902.298289,4672.90004,4796.760018,5380.740379
M85065,DR SN CLAY AND PARTNERS,B24 9JN,52.528641,-1.832005,QHL,NHS Birmingham and Solihull ICB,Y60,Midlands,E08000025,Birmingham,14381.82988,16554.77562,20410.88901,20364.24003,15392.61218,20048.67129,17242.70518,17496.11986,16411.58481,16957.14778
M85011,THE SWAN MEDICAL CENTRE,B25 8AA,52.462579,-1.817596,QHL,NHS Birmingham and Solihull ICB,Y60,Midlands,E08000025,Birmingham,7315.976484,8405.955283,9923.94904,8344.881455,8427.09606,9694.330804,8475.377573,8543.73397,8078.42144,8320.807844
M85094,YARDLEY MEDICAL CENTRE,B25 8BY,52.463189,-1.828397,QHL,NHS Birmingham and Solihull ICB,Y60,Midlands,E08000025,Birmingham,2573.543971,2041.663319,2003.674367,2881.926366,3713.957738,3609.777072,1952.131661,2330.810973,2750.70654,2879.56712
M85171,ROWLANDS ROAD SURGERY,B26 1AT,52.463271,-1.806157,QHL,NHS Birmingham and Solihull ICB,Y60,Midlands,E08000025,Birmingham,2946.245796,3035.663771,2881.368782,2752.002498,3539.079242,3565.833393,2742.301057,2984.429745,3027.022961,3107.844526
M89009,MANOR HOUSE LANE SURGERY,B26 1PE,52.461306,-1.802707,QHL,NHS Birmingham and Solihull ICB,Y60,Midlands,E08000025,Birmingham,11125.5734,12684.84093,12800.92854,11071.41602,12542.74149,13856.92592,12178.40774,12349.38197,11754.53159,12069.89074
M85694,GARRETTS GREEN LANE SURGERY,B26 2SB,52.468447,-1.788691,QHL,NHS Birmingham and Solihull ICB,Y60,Midlands,E08000025,Birmingham,3779.138367,3896.988785,3297.069442,3735.467841,5151.234905,5109.009909,3882.963529,3918.57097,3814.552854,4008.721412
M85717,DOWNSFIELD MEDICAL CENTRE,B26 2TY,52.466938,-1.77969,QHL,NHS Birmingham and Solihull ICB,Y60,Midlands,E08000025,Birmingham,4259.04808,4907.514487,4012.735702,6382.724199,5768.214338,7513.588278,5037.493174,5213.72953,4428.598016,4891.346555
M89021,COVENTRY ROAD PRACTICE,B26 3JS,52.451842,-1.77583,QHL,NHS Birmingham and Solihull ICB,Y60,Midlands,E08000025,Birmingham,4809.974329,5681.640588,5848.108203,3853.919932,5604.698162,4290.045391,5153.971484,5187.787749,5153.365089,5023.867134
M85097,CRANES PARK ROAD SURGERY,B26 3SE,52.456329,-1.779463,QHL,NHS Birmingham and Solihull ICB,Y60,Midlands,E08000025,Birmingham,2200.235482,2163.230701,1898.54941,2753.776397,2979.076386,2361.567905,1998.703675,2210.433553,2230.534927,2250.189874
M85048,CHURCH ROAD SURGERY,B26 3TP,52.458867,-1.78076,QHL,NHS Birmingham and Solihull ICB,Y60,Midlands,E08000025,Birmingham,11231.48774,14547.05954,16625.92087,13028.25152,12065.08543,15697.61063,13836.54578,14271.38663,12694.98348,13145.37755
M85770,THE SHELDON MEDICAL CENTRE,B26 3TT,52.460476,-1.77767,QHL,NHS Birmingham and Solihull ICB,Y60,Midlands,E08000025,Birmingham,2104.208331,2293.490681,2344.750006,2008.20266,1939.036412,2837.564818,2298.105264,2267.864709,2228.305821,2319.69467
M85736,ACOCKS GREEN MEDICAL CENTRE,B27 6QJ,52.44948,-1.829319,QHL,NHS Birmingham and Solihull ICB,Y60,Midlands,E08000025,Birmingham,5170.044324,4982.656443,4405.982077,7595.93673,6240.115453,6976.033311,4864.576519,5408.002164,5545.609354,5760.172948
M85177,SWANSWELL MEDICAL CENTRE,B27 7AL,52.432515,-1.816529,QHL,NHS Birmingham and Solihull ICB,Y60,Midlands,E08000029,Solihull,6390.643128,7033.320284,6064.655863,7954.682166,7709.252729,9597.486254,6790.058435,7204.406111,6528.235768,6988.623341
M85105,VICTORIA ROAD SURGERY,B27 7XZ,52.44445,-1.819643,QHL,NHS Birmingham and Solihull ICB,Y60,Midlands,E08000025,Birmingham,5214.741686,5607.526084,5614.034927,6910.470464,6832.876378,8056.230865,5606.225761,5966.596178,5597.875576,5966.628869
M85118,BALDWINS LANE SURGERY,B28 0RF,52.41452,-1.846222,QHL,NHS Birmingham and Solihull ICB,Y60,Midlands,E08000025,Birmingham,3126.115586,3160.536247,3423.971977,2265.483842,2944.825478,2678.206462,3136.306584,2966.105043,3085.328417,3024.260123
Y00159,HALL GREEN HEALTH,B28 8BG,52.440931,-1.849712,QHL,NHS Birmingham and Solihull ICB,Y60,Midlands,E08000025,Birmingham,31536.25984,30815.30689,27659.07003,34675.63982,41676.1978,34768.91247,31149.75286,31290.95228,31621.28891,32093.43244
M85062,SHENLEY GREEN SURGERY,B29 4HH,52.426433,-1.973896,QHL,NHS Birmingham and Solihull ICB,Y60,Midlands,E08000025,Birmingham,4999.770886,5557.999227,6220.878258,5276.07351,4258.020045,5397.589181,5567.352429,5431.777843,5303.068154,5317.246308
M85056,WEOLEY PARK SURGERY,B29 5HA,52.438088,-1.956826,QHL,NHS Birmingham and Solihull ICB,Y60,Midlands,E08000025,Birmingham,7417.762285,8134.046521,8082.165492,8792.908695,7195.246213,9050.324352,7997.68445,8117.256139,7790.38865,7979.379005
M85023,MILLENNIUM MEDICAL CENTRE,B29 5QD,52.437633,-1.966947,QHL,NHS Birmingham and Solihull ICB,Y60,Midlands,E08000025,Birmingham,9387.195513,10908.30659,10626.63192,13615.60148,10241.5279,14382.75027,10955.00396,11348.48518,10144.20357,10779.98557
M85055,SELLY OAK HEALTH CENTRE,B29 6JG,52.438251,-1.939144,QHL,NHS Birmingham and Solihull ICB,Y60,Midlands,E08000025,Birmingham,6630.323407,5265.319272,4762.309565,7963.605816,4497.258255,6013.466714,4709.461625,5477.298632,6248.857273,6213.548689
M85041,BOURNBROOK VARSITY MEDICAL CENTRE,B29 7DU,52.445713,-1.929903,QHL,NHS Birmingham and Solihull ICB,Y60,Midlands,E08000025,Birmingham,14573.5086,7906.203822,6891.012207,10013.74203,7999.720302,12173.84584,6618.25387,8349.366298,12790.87695,12698.32228
M85042,SELLY PARK SURGERY,B29 7NT,52.444045,-1.916435,QHL,NHS Birmingham and Solihull ICB,Y60,Midlands,E08000025,Birmingham,5084.713357,4908.812687,5138.375546,6806.594595,3860.542875,4430.71022,4634.22564,4977.796687,5161.819816,5052.153377
M85077,NORTHWOOD MEDICAL CENTRE,B30 1BY,52.415485,-1.932971,QHL,NHS Birmingham and Solihull ICB,Y60,Midlands,E08000025,Birmingham,9573.832164,10902.79869,11361.16185,9301.951234,8448.502673,7894.156954,10494.85607,10137.47445,10296.59912,9936.232795
M85156,RIVER BROOK MEDICAL CENTRE,B30 2SH,52.43303,-1.913809,QHL,NHS Birmingham and Solihull ICB,Y60,Midlands,E08000025,Birmingham,10032.74241,9479.064951,7428.322114,12233.47188,10741.6701,10541.9273,8792.781356,9556.883004,9837.582627,9943.234329
M85030,ST HELIERS MEDICAL PRACTICE,B31 1QT,52.41276,-1.975786,QHL,NHS Birmingham and Solihull ICB,Y60,Midlands,E08000025,Birmingham,17817.48138,18749.68066,18983.2575,18306.60981,19393.9985,22353.32971,18993.33988,18811.37438,18348.3344,18949.0837
M85730,DOSKI MEDICAL PRACTICE,B31 1TR,52.421346,-1.983266,QHL,NHS Birmingham and Solihull ICB,Y60,Midlands,E08000025,Birmingham,5558.116743,5453.600118,3751.82821,8773.534964,6683.500986,6686.939315,5739.32437,5786.483989,5367.983245,5565.826655
M85029,COLLEGE GREEN MEDICAL PRACTICE,B31 2GH,52.429902,-1.952916,QHL,NHS Birmingham and Solihull ICB,Y60,Midlands,E08000025,Birmingham,18680.49254,21371.39613,26135.25744,20151.13033,18892.45089,18344.62295,21454.93245,20969.03459,22062.16683,21504.53525
M85047,WOODLAND ROAD SURGERY,B31 2HZ,52.410221,-1.962175,QHL,NHS Birmingham and Solihull ICB,Y60,Midlands,E08000025,Birmingham,6071.44128,7152.53478,7370.501967,7668.545969,6050.137588,6509.183662,6829.616575,6979.530719,6628.978165,6611.008989
M85007,WEST HEATH SURGERY,B31 3HB,52.401797,-1.96202,QHL,NHS Birmingham and Solihull ICB,Y60,Midlands,E08000025,Birmingham,15352.2029,18742.04321,20473.45367,22108.78851,23097.20052,19799.36939,21181.77245,19446.18576,17312.71701,17685.71487
M85086,COFTON MEDICAL CENTRE,B31 4TU,52.392745,-1.966804,QHL,NHS Birmingham and Solihull ICB,Y60,Midlands,E08000025,Birmingham,10645.10552,11446.084,10743.72656,11214.45917,13581.92713,11212.18843,10951.4247,11162.59251,10855.72498,10909.1945
M85076,GREAT PARK MEDICAL GROUP,B31 5ER,52.403979,-1.998824,QHL,NHS Birmingham and Solihull ICB,Y60,Midlands,E08000025,Birmingham,10705.84461,13282.06545,13522.40727,12414.80139,12451.70488,14158.3874,12613.79441,12972.03604,12357.21386,12627.38989
M85172,RIDGACRE HOUSE SURGERY,B32 2TJ,52.460912,-1.99011,QHL,NHS Birmingham and Solihull ICB,Y60,Midlands,E08000025,Birmingham,13929.50817,14280.34791,13842.97212,16204.66177,16218.24091,11942.0712,13530.08661,14010.88456,14488.26533,14106.33621
M85143,JIGGINS LANE MEDICAL CENTRE,B32 3LE,52.436801,-1.995411,QHL,NHS Birmingham and Solihull ICB,Y60,Midlands,E08000025,Birmingham,7370.111021,8622.495872,8400.834606,10279.3257,7632.74759,8884.103089,8623.928358,8636.064435,7798.228195,7961.109429
M85117,BARTLEY GREEN MEDICAL PRACTICE,B32 3PR,52.436235,-2.003045,QHL,NHS Birmingham and Solihull ICB,Y60,Midlands,E08000025,Birmingham,5914.12233,6758.267154,6856.306925,8434.326032,6321.68622,6549.79236,7093.206683,6849.715869,6794.734125,6757.99286
M85035,WOODGATE VALLEY HEALTH CENTRE,B32 3SD,52.442663,-1.991423,QHL,NHS Birmingham and Solihull ICB,Y60,Midlands,E08000025,Birmingham,5496.137192,5959.308342,5439.771836,8124.362281,6192.630447,7027.006507,5989.759332,6191.541589,6000.179984,6154.203963
M85746,MIRFIELD SURGERY,B33 0SA,52.469072,-1.776956,QHL,NHS Birmingham and Solihull ICB,Y60,Midlands,E08000025,Birmingham,5604.58446,6242.31477,4857.388746,8050.396215,7699.128992,11162.63017,6030.078852,6743.666123,5522.554984,6368.566262
Y02893,IRIDIUM MEDICAL PRACTICE,B33 8TA,52.478024,-1.817518,QHL,NHS Birmingham and Solihull ICB,Y60,Midlands,E08000025,Birmingham,22080.91703,22859.85072,20310.54852,31753.94559,31555.84954,38061.15337,23266.73998,25200.47608,23063.61561,25313.24627
M85013,CHURCH LANE - KHAN,B33 9EJ,52.487187,-1.793823,QHL,NHS Birmingham and Solihull ICB,Y60,Midlands,E08000025,Birmingham,3813.188581,4245.064605,4482.342754,5042.957391,5867.972607,8083.621307,4483.725736,4768.42204,4570.376343,5097.363088
M85113,BUCKLANDS END LANE SURGERY,B34 6BP,52.497809,-1.799863,QHL,NHS Birmingham and Solihull ICB,Y60,Midlands,E08000025,Birmingham,6171.852167,6602.934093,7162.863662,6982.629832,7484.643764,7878.715171,6438.814517,6738.708208,6233.992241,6480.70068
M85141,SCHOOLACRE ROAD SURGERY,B34 6RB,52.497659,-1.785797,QHL,NHS Birmingham and Solihull ICB,Y60,Midlands,E08000025,Birmingham,3079.125379,4121.650002,4679.732589,3988.871483,4256.439673,4987.985497,4230.896193,4186.590687,3633.16907,3836.391534
M85031,THE HARLEQUIN SURGERY,B34 7BP,52.495438,-1.777802,QHL,NHS Birmingham and Solihull ICB,Y60,Midlands,E08000025,Birmingham,10783.26785,13705.86643,14715.72997,14853.02266,13535.40601,17206.51639,13440.95459,14024.18605,12241.43674,12986.19869
M85079,EDEN COURT MEDICAL PRACTICE,B35 6EE,52.518108,-1.794009,QHL,NHS Birmingham and Solihull ICB,Y60,Midlands,E08000025,Birmingham,10606.2192,13057.61893,12160.68218,14680.98064,13967.46108,19323.07246,13761.48584,13650.7577,11710.55687,12852.43421
M85001,SHAH ZAMAN SURGERY,B35 7QX,52.516832,-1.794472,QHL,NHS Birmingham and Solihull ICB,Y60,Midlands,E08000025,Birmingham,4794.616013,5848.707507,5187.9142,6910.074346,5415.522518,9486.514233,6017.015909,6169.217774,5093.941794,5752.82766
M89026,THE CASTLE PRACTICE,B36 0HH,52.501287,-1.75765,QHL,NHS Birmingham and Solihull ICB,Y60,Midlands,E08000029,Solihull,10764.73027,11871.96469,12883.62477,10404.43741,11514.88859,13129.03632,12029.06715,11747.64324,11638.58023,11862.14864
M89013,ARRAN MEDICAL CENTRE,B36 0SZ,52.503867,-1.748767,QHL,NHS Birmingham and Solihull ICB,Y60,Midlands,E08000029,Solihull,6218.843293,6649.721114,5223.558693,8063.865562,8379.92868,10435.39526,6339.786752,7000.687595,6345.814717,6959.251798
M89027,GREEN LANE SURGERY,B36 0SZ,52.503867,-1.748767,QHL,NHS Birmingham and Solihull ICB,Y60,Midlands,E08000029,Solihull,8299.395882,9291.657574,8419.647608,10215.16386,10880.21384,13573.33777,9179.179558,9662.697468,9069.734869,9745.275303
Y02567,HODGE HILL FAMILY PRACTICE,B36 8GH,52.502864,-1.801019,QHL,NHS Birmingham and Solihull ICB,Y60,Midlands,E08000025,Birmingham,6475.701799,5800.12594,3651.294191,8039.503613,9751.007655,8036.328813,5327.850766,6099.32284,6165.435189,6446.069233
M85107,FIRS SURGERY,B36 8LR,52.506308,-1.801504,QHL,NHS Birmingham and Solihull ICB,Y60,Midlands,E08000025,Birmingham,3608.17669,3333.649511,2599.88211,5149.214487,5078.369708,4747.366825,3346.631479,3641.932316,3867.910914,3999.829301
M89001,PARKFIELD MEDICAL CENTRE,B36 9EJ,52.509264,-1.775824,QHL,NHS Birmingham and Solihull ICB,Y60,Midlands,E08000029,Solihull,3630.052531,4378.537882,4024.675698,3431.298611,3880.42686,3685.652839,4528.244504,4078.662222,3840.968645,3817.671274
M89008,BOSWORTH MEDICAL GROUP,B37 5BU,52.480569,-1.753633,QHL,NHS Birmingham and Solihull ICB,Y60,Midlands,E08000029,Solihull,13692.81287,16651.99297,16503.8219,20175.98717,17788.89476,27065.44088,17158.80963,17941.15037,15160.17632,16945.966
M89002,KINGSHURST MEDICAL PRACTICE,B37 6BE,52.494006,-1.747785,QHL,NHS Birmingham and Solihull ICB,Y60,Midlands,E08000029,Solihull,6445.085488,7324.373022,6101.970798,8795.50703,8405.996686,9971.19391,7555.861072,7594.910813,6946.881193,7400.5281
M89012,CROFT MEDICAL CENTRE,B37 7WB,52.477876,-1.727743,QHL,NHS Birmingham and Solihull ICB,Y60,Midlands,E08000029,Solihull,11196.21907,13463.10212,13974.70061,17102.20807,14282.19206,24662.67609,14185.89451,14969.34741,12278.92363,14136.4865
M85134,WEST HEATH PRIMARY C CTR,B38 8AX,52.39889,-1.953645,QHL,NHS Birmingham and Solihull ICB,Y60,Midlands,E08000025,Birmingham,1477.140392,1666.321849,1544.247598,1449.146122,0,1915.22979,1691.09983,1563.522045,1438.175441,1509.733593
M85600,KINGS NORTON SURGERY,B38 8QS,52.404588,-1.930753,QHL,NHS Birmingham and Solihull ICB,Y60,Midlands,E08000025,Birmingham,16063.77949,17019.6975,15047.76445,22821.85622,21750.87511,18991.48874,15254.53106,17467.9757,16437.01394,16820.18516
M85071,WYCHALL LANE SURGERY,B38 8TE,52.409967,-1.935566,QHL,NHS Birmingham and Solihull ICB,Y60,Midlands,E08000025,Birmingham,7941.879557,9910.725496,9939.854898,9757.9722,6849.47604,10021.56859,9823.88849,9605.446529,8737.372231,8930.001685
M85043,HAWKESLEY MEDICAL PRACTICE,B38 9TJ,52.39544,-1.937498,QHL,NHS Birmingham and Solihull ICB,Y60,Midlands,E08000025,Birmingham,4339.803599,5693.531349,5725.550016,7140.732053,5327.617252,7118.193577,5761.785182,5901.551079,4875.580028,5211.972061
M85019,TOWER HILL PARTNERSHIP,B42 1BT,52.530117,-1.910666,QHL,NHS Birmingham and Solihull ICB,Y60,Midlands,E08000025,Birmingham,18172.56806,17341.78072,18281.70533,18448.33929,21865.97536,18103.45416,16683.98337,17485.1694,18043.51861,18052.50894
M85624,PERRY PARK SURGERY,B42 1TY,52.525683,-1.904357,QHL,NHS Birmingham and Solihull ICB,Y60,Midlands,E08000025,Birmingham,6366.387108,6243.635524,5890.180188,7311.744574,6992.843746,8389.576272,6001.389857,6463.757222,6409.247204,6706.296564
M88021,SCOTT ARMS MEDICAL CENTRE,B43 6EE,52.547136,-1.925068,QUA,NHS Black Country ICB,Y60,Midlands,E08000028,Sandwell,11091.978,10972.67702,14029.83455,8819.107283,10756.14678,10148.68001,11078.61013,10694.71173,11160.5498,11008.76933
M91642,QUESLETT MEDICAL CENTRE,B43 7DY,52.557501,-1.898034,QHL,NHS Birmingham and Solihull ICB,Y60,Midlands,E08000030,Walsall,1681.331372,1688.135072,1433.678654,1395.256143,1864.315663,1438.769883,1601.078059,1546.988017,1502.015589,1492.528734
M88015,GREAT BARR PRACTICE,B43 7HB,52.549017,-1.915346,QUA,NHS Black Country ICB,Y60,Midlands,E08000025,Birmingham,10715.1809,9464.425411,9499.946626,9081.347677,12322.67159,9768.184126,9360.321638,9419.066952,9881.369961,9864.392085
M91032,COLLINGWOOD FAMILY PRACTICE,B43 7NF,52.55667,-1.903405,QUA,NHS Black Country ICB,Y60,Midlands,E08000030,Walsall,5013.367497,5034.956916,5155.502566,3313.141125,4933.701135,3780.764703,4964.049362,4552.881096,4644.264203,4514.739278
M85779,AYLESBURY SURGERY,B44 0DX,52.542854,-1.876053,QHL,NHS Birmingham and Solihull ICB,Y60,Midlands,E08000025,Birmingham,2834.552599,3314.481757,3368.53942,3782.933526,3451.7394,4793.07973,3109.977627,3456.026741,3001.822299,3270.510914
M85087,COLLEGE ROAD SURGERY,B44 0HL,52.536766,-1.874213,QHL,NHS Birmingham and Solihull ICB,Y60,Midlands,E08000025,Birmingham,11224.89975,11876.98568,11443.95385,13253.49643,14012.3232,20014.14901,11562.58778,12683.57307,11852.29464,13076.5728
M85016,HILLCREST SURGERY,B44 0NN,52.544631,-1.864753,QHL,NHS Birmingham and Solihull ICB,Y60,Midlands,E08000025,Birmingham,5357.736194,6303.567238,6204.244315,7636.519352,5839.865589,9706.746708,6081.572081,6653.019714,5697.625171,6298.993401
M85155,KINGSTANDING CIRCLE SURGERY,B44 0UY,52.553959,-1.881458,QHL,NHS Birmingham and Solihull ICB,Y60,Midlands,E08000025,Birmingham,6703.438115,7469.742337,6520.878831,8503.05164,8536.245732,9219.323467,6984.887721,7549.656794,7174.455841,7481.185985
M85792,COTMORE SURGERY,B44 8TU,52.542584,-1.894647,QHL,NHS Birmingham and Solihull ICB,Y60,Midlands,E08000025,Birmingham,3342.568933,3965.265773,5149.004388,2768.158953,3208.913214,3665.044536,3667.541168,3787.94502,3717.382028,3709.531404
M85060,THE OAKS MEDICAL CENTRE,B44 9ER,52.552454,-1.895827,QHL,NHS Birmingham and Solihull ICB,Y60,Midlands,E08000025,Birmingham,15228.92441,16234.12293,15086.61191,14628.63772,19074.72798,14171.70764,15640.49187,15487.09025,15379.30293,15198.16363
M85158,APOLLO SURGERY,B44 9HW,52.554702,-1.893896,QHL,NHS Birmingham and Solihull ICB,Y60,Midlands,E08000025,Birmingham,2174.967827,2485.711697,2580.374403,1919.327556,1989.22817,2181.653621,2350.747279,2321.899851,2245.701481,2236.094302
M81078,BARNT GREEN SURGERY,B45 8NF,52.35999,-1.991028,QGH,NHS Herefordshire and Worcestershire ICB,Y60,Midlands,E07000234,Bromsgrove,6744.718003,6756.355966,7379.537747,3390.805032,4938.128326,3873.241715,7058.404988,6030.328766,6757.52652,6324.8838
M85027,LEACH HEATH MEDICAL CENTRE,B45 9BU,52.392138,-2.013005,QHL,NHS Birmingham and Solihull ICB,Y60,Midlands,E08000025,Birmingham,8109.494925,10137.26955,9400.284435,9706.50703,8858.885627,7818.471823,9685.630854,9501.658424,8701.806882,8569.306623
M81025,NEW ROAD SURGERY,B45 9HY,52.392321,-2.022092,QGH,NHS Herefordshire and Worcestershire ICB,Y60,Midlands,E07000234,Bromsgrove,5195.542863,5404.548741,5895.996335,3718.79854,4910.786413,3836.806429,5643.695276,5050.128288,5315.70637,5093.871379
M81055,CORNHILL SURGERY,B45 9JT,52.392366,-2.023121,QGH,NHS Herefordshire and Worcestershire ICB,Y60,Midlands,E07000234,Bromsgrove,5744.165268,6336.964069,6274.555201,5322.800762,6276.39265,5149.112695,6199.752708,6016.99902,5970.415105,5847.219744
Y04884,SATIS HOUSE,B46 1TH,52.517523,-1.747459,QWU,NHS Coventry and Warwickshire ICB,Y60,Midlands,E07000218,North Warwickshire,3324.974883,3524.522369,3792.336864,1728.671268,2740.57167,2697.426004,3487.532904,3185.643988,3372.960981,3271.630735
M84042,HAZELWOOD GROUP PRACTICE,B46 3LD,52.496975,-1.706752,QWU,NHS Coventry and Warwickshire ICB,Y60,Midlands,E07000218,North Warwickshire,10483.52953,11523.02087,13271.94709,7047.313756,9648.371482,8347.118602,11703.11016,10668.78449,10812.81698,10442.96222
M81064,HOLLYWOOD MEDICAL CENTRE,B47 5DP,52.389572,-1.882154,QGH,NHS Herefordshire and Worcestershire ICB,Y60,Midlands,E07000234,Bromsgrove,8286.955162,8933.154827,9949.430981,5361.689916,7515.102239,6787.034207,8915.202115,8252.713289,8338.745646,8105.98893
M81083,HOLLYOAKS MEDICAL CENTRE,B47 6ET,52.377979,-1.869052,QGH,NHS Herefordshire and Worcestershire ICB,Y60,Midlands,E07000234,Bromsgrove,4926.71072,5909.162623,7311.945336,4229.127476,4852.208845,3664.023702,6207.697195,5541.134793,5366.965824,5111.524506
M84049,ALCESTER HEALTH CENTRE,B49 6QR,52.218533,-1.861433,QWU,NHS Coventry and Warwickshire ICB,Y60,Midlands,E07000221,Stratford-on-Avon,5941.535193,7659.990519,8681.909858,5330.324273,4240.696239,4529.560433,7363.9612,6995.600887,6827.576225,6482.873856
M84060,THE ARROW SURGERY,B49 6QR,52.218533,-1.861433,QWU,NHS Coventry and Warwickshire ICB,Y60,Midlands,E07000221,Stratford-on-Avon,6938.654525,7525.362212,9114.108389,5020.181029,5266.352703,5282.802123,7768.701492,7089.914456,7420.467299,7099.817523
M85124,BELLEVUE MEDICAL CENTRE,B5 7LX,52.465393,-1.900852,QHL,NHS Birmingham and Solihull ICB,Y60,Midlands,E08000025,Birmingham,12709.10747,10107.17077,9485.363233,23473.75848,12949.16924,18568.35276,9179.221334,12448.32626,13460.0125,14226.26354
M84018,BIDFORD HEALTH CENTRE,B50 4LX,52.171789,-1.834944,QWU,NHS Coventry and Warwickshire ICB,Y60,Midlands,E07000221,Stratford-on-Avon,14364.73138,15632.37545,16774.90843,10326.06093,12198.97834,10006.05948,15911.84295,14422.38522,15295.88356,14502.40995
M85676,VICTORIA ROAD MEDICAL CTR,B6 5HP,52.501868,-1.887197,QHL,NHS Birmingham and Solihull ICB,Y60,Midlands,E08000025,Birmingham,6308.801454,4712.941656,4719.421151,8680.006046,9572.802387,11144.77068,4919.211317,5991.628393,6408.060588,7118.567102
M85697,CHURCH ROAD SURGERY,B6 5UP,52.503316,-1.875236,QHL,NHS Birmingham and Solihull ICB,Y60,Midlands,E08000025,Birmingham,4746.059794,4169.226875,3809.503608,8321.379153,6954.437644,8416.985089,4532.088323,5143.196556,4992.305441,5506.007388
M85069,LAURIE PIKE HEALTH CENTRE,B6 6BB,52.505172,-1.899142,QHL,NHS Birmingham and Solihull ICB,Y60,Midlands,E08000025,Birmingham,10218.02349,8703.12416,7604.016375,19355.37087,0,19599.438,8870.039708,10564.86299,9519.090414,11031.14255
M85123,AL-SHAFA MEDICAL CENTRE,B6 6JY,52.506253,-1.891581,QHL,NHS Birmingham and Solihull ICB,Y60,Midlands,E08000025,Birmingham,8937.869506,7064.767132,7267.83751,11789.67971,11061.88566,15440.7433,7287.046329,8579.284984,8446.180803,9495.365178
M81021,NEW ROAD SURGERY BROMSGROVE,B60 2JS,52.330597,-2.056291,QGH,NHS Herefordshire and Worcestershire ICB,Y60,Midlands,E07000234,Bromsgrove,13041.78573,12432.2262,12863.63119,9621.160942,11414.40299,9028.357689,12576.09928,11685.49925,12352.43608,11853.82432
M81070,CHURCHFIELDS SURGERY,B61 0AZ,52.337612,-2.059728,QGH,NHS Herefordshire and Worcestershire ICB,Y60,Midlands,E07000234,Bromsgrove,11812.71661,12683.62557,14761.42152,10851.60749,9784.724946,9036.891718,13139.88233,12117.40742,11761.31716,11352.65334
M81082,ST. JOHNS SURGERY,B61 0AZ,52.337612,-2.059728,QGH,NHS Herefordshire and Worcestershire ICB,Y60,Midlands,E07000234,Bromsgrove,15803.47552,15101.37434,14213.39367,12718.41818,17066.23858,11607.6396,15093.9286,14332.18575,14350.12989,13938.75634
M81069,DAVENAL HOUSE SURGERY PARTNERSHIP,B61 0DD,52.338967,-2.055435,QGH,NHS Herefordshire and Worcestershire ICB,Y60,Midlands,E07000234,Bromsgrove,9788.880705,11004.04798,13222.62063,9085.55211,10225.03925,7033.520831,11380.85402,10486.28142,10140.28406,9674.269577
M81084,CATSHILL VILLAGE SURGERY,B61 0PU,52.366603,-2.054442,QGH,NHS Herefordshire and Worcestershire ICB,Y60,Midlands,E07000234,Bromsgrove,5718.82597,5495.321402,5296.492483,3521.2186,5870.513499,4304.257133,5664.553447,5108.228017,5544.420993,5358.396414
M87014,LAPAL MEDICAL PRACTICE,B62 0HP,52.4587,-2.016174,QUA,NHS Black Country ICB,Y60,Midlands,E08000027,Dudley,8134.839412,8436.44527,8523.237953,6173.800969,8063.516275,6098.695474,8321.48262,7657.316428,7891.584231,7622.650918
M87020,FELDON LANE PRACTICE,B62 9DR,52.467325,-2.028271,QUA,NHS Black Country ICB,Y60,Midlands,E08000027,Dudley,9387.463259,9590.597958,9979.667627,7616.539327,9529.746054,8448.185061,9623.976045,8986.302353,9054.858303,8963.857317
M87034,CLEMENT ROAD MEDICAL PRACTICE,B62 9LR,52.472097,-2.033824,QUA,NHS Black Country ICB,Y60,Midlands,E08000027,Dudley,5832.318064,5321.643897,5252.998314,5965.966028,8269.704041,6542.21253,5533.982258,5485.188176,5571.280615,5716.920403
M87001,MEADOWBROOK SURGERY,B63 1AB,52.446603,-2.071308,QUA,NHS Black Country ICB,Y60,Midlands,E08000027,Dudley,6588.367486,7839.062743,8662.998462,4586.670248,4852.477177,5273.117668,7613.503946,6895.79002,6673.315783,6463.286066
Y01756,STOURSIDE MEDICAL PRACTICE,B63 3HN,52.449059,-2.049197,QUA,NHS Black Country ICB,Y60,Midlands,E08000027,Dudley,6236.840196,6441.580999,7133.193292,5506.603938,6439.166183,5759.690943,6809.043527,6164.382099,6243.11949,6170.605208
M87623,ALEXANDRA MEDICAL CENTRE,B63 3UH,52.454096,-2.063006,QUA,NHS Black Country ICB,Y60,Midlands,E08000027,Dudley,3270.282798,2806.764075,2382.188374,3052.754953,3992.436977,3114.923782,3022.22446,2804.585874,2924.473891,2953.041374
M87602,HALESOWEN MEDICAL PRACTICE,B63 4WD,52.444056,-2.059137,QUA,NHS Black Country ICB,Y60,Midlands,E08000027,Dudley,10052.07746,10462.82373,10970.57411,8023.205472,10067.87537,8225.18045,10673.35946,9679.258728,9924.15918,9669.31237
M88030,CHURCH VIEW SURGERY,B64 6JE,52.475059,-2.066555,QUA,NHS Black Country ICB,Y60,Midlands,E08000028,Sandwell,6243.423669,8177.264798,9365.795397,6570.063319,7597.414129,7344.631465,7724.699357,7751.090452,6667.516886,6769.084073
M88016,OLD HILL MEDICAL CENTRE,B64 6JN,52.474358,-2.065538,QUA,NHS Black Country ICB,Y60,Midlands,E08000028,Sandwell,3580.515268,3454.100486,3441.626878,4271.953256,5981.52781,4258.159656,3497.618547,3664.719256,4329.735307,4318.99896
M88043,HADEN VALE SURGERY,B64 7HG,52.466347,-2.073333,QUA,NHS Black Country ICB,Y60,Midlands,E08000028,Sandwell,8334.617946,7603.941819,7275.21088,7187.550405,11400.72619,9247.008049,7792.549378,7688.636758,8663.303523,8750.859202
M88004,REGIS MEDICAL CENTRE,B65 0BA,52.475153,-2.044492,QUA,NHS Black Country ICB,Y60,Midlands,E08000028,Sandwell,40649.41485,43333.83777,46996.05048,42068.7426,46302.63793,52182.28401,41591.56324,43407.91842,40863.30815,42561.15453
M88031,HAWES LANE SURGERY,B65 9AF,52.486317,-2.04951,QUA,NHS Black Country ICB,Y60,Midlands,E08000028,Sandwell,381.112863,384.2299724,474.5029377,418.9215147,0,538.7473601,407.0909646,392.2182559,357.3977597,384.6001998
M88040,ST PAUL'S MEDICAL PRACTICE,B66 1HB,52.500782,-1.98854,QUA,NHS Black Country ICB,Y60,Midlands,E08000028,Sandwell,6789.701691,5669.629617,6335.154086,8262.96884,6528.051169,9789.756115,6093.862423,6417.957288,6306.813421,6829.254825
M88041,HAWTHORNS MEDICAL CENTRE,B66 2DD,52.501507,-1.967268,QUA,NHS Black Country ICB,Y60,Midlands,E08000028,Sandwell,3545.323799,2668.666096,2170.810114,4434.300081,5098.318164,5083.785507,2805.811748,3129.485075,3412.496185,3663.189583
M88002,THE SMETHWICK MEDICAL CENTRE,B66 3BQ,52.494881,-1.968127,QUA,NHS Black Country ICB,Y60,Midlands,E08000028,Sandwell,9343.836108,8404.591285,7934.848929,13695.77984,12895.38313,13687.48635,8296.856542,9507.659116,8917.902596,9633.34016
M88006,CAPE HILL MEDICAL CENTRE,B66 3NR,52.488404,-1.954259,QUA,NHS Black Country ICB,Y60,Midlands,E08000028,Sandwell,12089.70369,11168.42394,9798.545987,18261.20265,14877.80674,17971.91472,10605.44085,12434.3099,12040.34986,12930.08459
M88009,NORVIC FAMILY PRACTICE,B66 3PZ,52.489728,-1.960133,QUA,NHS Black Country ICB,Y60,Midlands,E08000028,Sandwell,9697.090645,8998.980499,9483.72517,12157.5825,11367.53121,13395.63611,9274.318659,9788.344099,9357.409517,9963.143506
M88019,BEARWOOD ROAD SURGERY,B66 4ES,52.482125,-1.969417,QUA,NHS Black Country ICB,Y60,Midlands,E08000028,Sandwell,3091.90878,2238.406463,2474.723792,3446.367631,3863.355369,3998.954235,2149.338647,2601.449753,2963.330075,3118.673699
M88042,BEARWOOD MEDICAL CENTRE,B67 5BP,52.476903,-1.97344,QUA,NHS Black Country ICB,Y60,Midlands,E08000028,Sandwell,5859.32722,4191.371489,3697.858932,5673.873593,7729.310107,6191.069232,4072.195958,4576.542349,5718.825945,5789.662438
M88610,SAREPHED MEDICAL CENTRE,B67 6AJ,52.490306,-1.970398,QUA,NHS Black Country ICB,Y60,Midlands,E08000028,Sandwell,4858.486242,3234.153798,3301.485976,6279.062018,6734.417276,7995.598931,3074.381819,4154.870641,4404.892617,4943.498564
M88633,LODGE ROAD SURGERY,B67 7LU,52.49982,-1.984312,QUA,NHS Black Country ICB,Y60,Midlands,E08000028,Sandwell,7075.411595,5562.376397,5730.686485,7815.100533,10028.61167,10067.08464,5557.415856,6367.577621,6805.450784,7294.695863
M88003,WARLEY MEDICAL CENTRE,B68 0RT,52.468122,-2.006757,QUA,NHS Black Country ICB,Y60,Midlands,E08000028,Sandwell,11843.64634,13222.97804,14644.59513,11320.44611,11529.16302,11646.89332,13082.39541,12594.36797,12418.44152,12302.70929
M88647,ROOD END MEDICAL PRACTICE,B68 8JB,52.494094,-1.999691,QUA,NHS Black Country ICB,Y60,Midlands,E08000028,Sandwell,6023.075116,4115.862434,3733.676073,7641.0227,8451.442913,8505.145404,4008.742644,5031.763346,5593.364555,6030.131682
M88620,CAUSEWAY GREEN ROAD SURGERY,B68 8LJ,52.484564,-2.014697,QUA,NHS Black Country ICB,Y60,Midlands,E08000028,Sandwell,3423.817893,2563.776462,2656.569513,4073.423484,4507.03381,3829.30932,2600.476725,2914.490273,3409.490594,3472.463403
M88645,HILL TOP MEDICAL CENTRE,B68 9DU,52.478488,-1.998175,QUA,NHS Black Country ICB,Y60,Midlands,E08000028,Sandwell,9344.566212,9079.621439,8638.814772,9348.322248,9341.589903,10530.45595,9391.273989,9048.691814,9097.338172,9312.305838
M88635,DOG KENNEL LANE SURGERY,B68 9LZ,52.489788,-1.995744,QUA,NHS Black Country ICB,Y60,Midlands,E08000028,Sandwell,2165.67635,1946.780164,2512.259493,2133.754805,2196.018969,2886.211917,2107.033787,2104.398489,2222.102224,2321.718678
M88640,WARLEY ROAD SURGERY,B68 9SZ,52.490193,-1.993726,QUA,NHS Black Country ICB,Y60,Midlands,E08000028,Sandwell,4062.308904,3552.769346,3755.891931,3818.287886,5121.544565,5629.811915,3737.794065,3819.607511,4204.336235,4418.157587
M88026,PORTWAY FAMILY PRACTICE,B69 1HE,52.497603,-2.030323,QUA,NHS Black Country ICB,Y60,Midlands,E08000028,Sandwell,8084.165961,7450.338746,7082.036603,8685.567204,11935.19199,9259.489319,7221.136727,7767.571237,10070.3571,9948.726931
M88618,"WALFORD STREET, TIVIDALE",B69 2LD,52.513192,-2.059752,QUA,NHS Black Country ICB,Y60,Midlands,E08000028,Sandwell,2040.716419,1802.193644,1816.037741,1928.574453,2536.047246,2680.905154,1979.120743,1912.224302,2016.971697,2116.561715
M88018,OLDBURY HEALTH CENTRE,B69 4DE,52.503737,-2.014122,QUA,NHS Black Country ICB,Y60,Midlands,E08000028,Sandwell,21846.68574,21389.65608,22601.83078,27385.93676,26420.03016,27845.59162,21694.19994,22634.03086,22336.24509,23162.64707
M85732,BLOOMSBURY SURGERY,B7 5BT,52.493243,-1.871892,QHL,NHS Birmingham and Solihull ICB,Y60,Midlands,E08000025,Birmingham,2434.99021,2163.45008,1899.313907,4554.212448,4029.553064,4767.616695,2086.92777,2723.287012,2496.373595,2837.06006
M85759,NECHELLS PRACTICE,B7 5DT,52.493743,-1.876618,QHL,NHS Birmingham and Solihull ICB,Y60,Midlands,E08000025,Birmingham,7362.338264,6943.735173,5377.320952,13979.93558,9943.095795,14824.78949,6757.564357,8428.190497,7349.833293,8471.076722
M85053,THE ST.CLEMENTS SURGERY,B7 5PR,52.498198,-1.867969,QHL,NHS Birmingham and Solihull ICB,Y60,Midlands,E08000025,Birmingham,6768.925926,6586.09856,5206.031761,11169.29586,9154.327104,13158.01432,6879.47454,7680.10487,6638.408391,7616.349281
Y02701,GREAT BRIDGE HEALTH CENTRE,B70 0BF,52.527792,-2.02775,QUA,NHS Black Country ICB,Y60,Midlands,E08000028,Sandwell,8747.125098,7513.89742,4687.913766,10928.90386,11164.10371,12814.08926,7493.58269,8144.807121,7390.666866,8204.180226
M88035,NEW STREET SURGERY,B70 0HN,52.536955,-2.012925,QUA,NHS Black Country ICB,Y60,Midlands,E08000028,Sandwell,3647.506956,3526.778968,3612.25578,4888.077896,4245.147078,5071.943835,3705.075758,3817.354391,3494.94907,3731.498285
M88014,DR GUDI PV & PARTNER,B70 0PU,52.535643,-2.011111,QUA,NHS Black Country ICB,Y60,Midlands,E08000028,Sandwell,6627.735105,5929.047875,6237.592973,8149.472265,8390.492371,9389.934473,6045.193315,6557.165546,6617.091047,7033.017561
M88626,DR UI HAQUE N,B70 6JX,52.51273,-1.984396,QUA,NHS Black Country ICB,Y60,Midlands,E08000028,Sandwell,3670.772111,3150.907258,3416.578999,5098.381567,5040.319928,6636.451598,3292.612361,3785.724615,3745.42706,4179.080741
M88639,ST PAULS PARTNERS,B70 6JX,52.51273,-1.984396,QUA,NHS Black Country ICB,Y60,Midlands,E08000028,Sandwell,3428.325649,2909.911598,2697.279499,5254.637962,4422.177627,6291.736755,2760.751922,3501.338211,3376.113255,3813.45678
M88038,LINKWAY MEDICAL PRACTICE,B70 7AW,52.516003,-1.997982,QUA,NHS Black Country ICB,Y60,Midlands,E08000028,Sandwell,13853.59463,14798.75568,16696.81999,19075.98333,15119.78452,22673.48269,15963.21074,16077.77281,14916.44764,16080.0029
M88619,DR ARORA RK,B70 7AW,52.516003,-1.997982,QUA,NHS Black Country ICB,Y60,Midlands,E08000028,Sandwell,10957.46233,10281.49203,11417.38636,14793.68282,15092.35494,17887.94404,10155.88965,11659.14622,11053.45629,12078.62945
M88625,ST PAUL'S PARTNERSHIP - LYNG MEDICAL,B70 7AW,52.516003,-1.997982,QUA,NHS Black Country ICB,Y60,Midlands,E08000028,Sandwell,3392.115163,2920.945672,3046.154609,4600.353893,4280.999767,5793.890124,2852.04449,3415.476332,3433.626392,3787.665952
M88646,DR DEWAN VK,B70 7AW,52.516003,-1.997982,QUA,NHS Black Country ICB,Y60,Midlands,E08000028,Sandwell,2641.151565,2631.913894,2466.437127,4106.390428,3106.607467,4379.283121,2567.508148,2925.126681,2693.033945,2945.971321
M88628,DR SINGH M,B70 8HQ,52.514966,-2.002058,QUA,NHS Black Country ICB,Y60,Midlands,E08000028,Sandwell,3481.735207,2925.991592,3122.427868,3828.634167,3708.864441,5763.216572,3009.501574,3321.140192,3393.708128,3749.134395
M88044,WEST BROM P'SHIPS FOR HEALTH,B70 8PG,52.517891,-2.000605,QUA,NHS Black Country ICB,Y60,Midlands,E08000028,Sandwell,0.168333491,0.064521991,0.052668169,0.318719036,0,0.237958969,0.064685184,0.108334292,0.080513138,0.104130013
M88630,CLIFTON LANE MEDICAL CENTRE,B71 3AS,52.543448,-1.982336,QUA,NHS Black Country ICB,Y60,Midlands,E08000028,Sandwell,5134.147596,4543.653625,5115.023583,5551.038946,6049.849332,7233.622043,4834.603203,4980.620921,5047.263286,5375.2171
M88008,STONE CROSS MEDICAL CENTRE,B71 3LN,52.545444,-1.982689,QUA,NHS Black Country ICB,Y60,Midlands,E08000028,Sandwell,5227.321827,5400.105284,6376.154763,5641.241449,5922.870072,6820.781823,5530.669151,5579.314759,5385.785236,5601.034724
M85175,THE HAWTHORNS SURGERY,B72 1DL,52.538746,-1.825965,QHL,NHS Birmingham and Solihull ICB,Y60,Midlands,E08000025,Birmingham,10571.15658,12399.1041,13973.15658,7184.269916,7535.036001,8118.463961,12178.62401,11071.20829,11230.97301,10764.09665
M85033,THE MANOR PRACTICE,B72 1RL,52.55816,-1.823617,QHL,NHS Birmingham and Solihull ICB,Y60,Midlands,E08000025,Birmingham,17564.42525,18952.77791,16979.59353,12518.59662,15064.00981,12007.74083,17693.75152,16674.97075,16585.26607,15898.63728
M91637,BLACKWOOD HEALTH CENTRE,B74 3PL,52.58006,-1.891665,QUA,NHS Black Country ICB,Y60,Midlands,E08000030,Walsall,4063.749966,4282.989836,4797.752757,2142.646562,3718.202377,2545.504893,3994.818864,3729.637837,3952.18296,3741.18125
M85046,SUTTON COLDFIELD GROUP PRACTICE,B75 6DX,52.577354,-1.806688,QHL,NHS Birmingham and Solihull ICB,Y60,Midlands,E08000025,Birmingham,53304.59676,60115.84783,58077.67305,34383.69635,43903.32043,34902.03309,55574.76648,52139.39998,51288.97006,48830.92952
M85026,ASHFIELD SURGERY,B76 1QN,52.540709,-1.799904,QHL,NHS Birmingham and Solihull ICB,Y60,Midlands,E08000025,Birmingham,15003.20932,18093.25269,17173.58557,10260.53553,12155.76401,10843.66572,17797.19823,15728.0046,15264.91865,14601.73071
M83110,HEATHVIEW MEDICAL PRACTICE,B77 2ED,52.621966,-1.663812,QNC,NHS Staffordshire and Stoke-on-Trent ICB,Y60,Midlands,E07000199,Tamworth,16091.92002,15990.70788,14311.2999,14836.02707,19544.84817,16557.69887,16654.37236,15666.17857,15271.51044,15464.4387
M83693,TRI-LINKS MEDICAL PRACTICE,B77 3BZ,52.634849,-1.664038,QNC,NHS Staffordshire and Stoke-on-Trent ICB,Y60,Midlands,E07000199,Tamworth,7155.734156,5937.910517,4267.875006,5707.928014,8676.617518,6666.655104,6431.13968,5867.643939,6133.422258,6213.407185
M83113,DR KHARE'S SURGERY,B77 4JA,52.617686,-1.651222,QNC,NHS Staffordshire and Stoke-on-Trent ICB,Y60,Midlands,E07000199,Tamworth,2491.373803,2677.117581,2002.761061,2819.126481,2597.034321,2771.92504,2671.299464,2586.656404,2332.677044,2398.564244
M84007,DORDON & POLESWORTH GROUP PRACTICE,B78 1QA,52.604024,-1.614159,QWU,NHS Coventry and Warwickshire ICB,Y60,Midlands,E07000218,North Warwickshire,13492.68547,14449.30662,15027.74642,9347.383072,12307.72863,11917.42918,14532.45104,13421.97966,13500.67975,13263.19217
M84006,PEAR TREE SURGERY,B78 2NR,52.563694,-1.680145,QWU,NHS Coventry and Warwickshire ICB,Y60,Midlands,E07000218,North Warwickshire,10593.00749,11256.84457,11253.44145,6690.142145,9567.615088,9102.873769,11545.34602,10337.8044,10564.3792,10345.15339
M83111,RIVERSIDE SURGERY,B79 7BH,52.632337,-1.699518,QNC,NHS Staffordshire and Stoke-on-Trent ICB,Y60,Midlands,E07000199,Tamworth,2429.242494,2906.324454,2790.936582,2347.3255,2837.077905,2515.141666,2895.491687,2731.736612,2435.059337,2447.071687
M83148,THE PEEL MEDICAL PRACTICE,B79 7DJ,52.634794,-1.697308,QNC,NHS Staffordshire and Stoke-on-Trent ICB,Y60,Midlands,E07000199,Tamworth,14507.23911,15306.15651,14415.58793,12403.41589,14591.65199,13918.63655,15973.2949,14488.78268,13562.44353,13615.87248
M83088,HOLLIES PRACTICE,B79 7EA,52.636838,-1.695121,QNC,NHS Staffordshire and Stoke-on-Trent ICB,Y60,Midlands,E07000199,Tamworth,15457.7593,17154.65827,19705.37995,12749.31529,14077.46365,14082.0192,18195.33963,16248.67348,15607.25137,15378.46654
M83117,CROWN MEDICAL PRACTICE,B79 7EA,52.636838,-1.695121,QNC,NHS Staffordshire and Stoke-on-Trent ICB,Y60,Midlands,E07000199,Tamworth,8536.084174,8995.165435,7876.873735,8092.621778,8333.747907,8244.586886,9156.680713,8529.200751,7771.304595,7842.296938
M83062,LAUREL HOUSE SURGERY,B79 7JN,52.636563,-1.692825,QNC,NHS Staffordshire and Stoke-on-Trent ICB,Y60,Midlands,E07000199,Tamworth,12810.66649,14936.1491,16440.59256,10337.53307,12027.79578,11197.84019,15400.92977,13821.82852,13031.7378,12756.65316
M83032,THE ALDERGATE MED.PRACT.,B79 8BH,52.639079,-1.695644,QNC,NHS Staffordshire and Stoke-on-Trent ICB,Y60,Midlands,E07000199,Tamworth,14172.8845,15349.91243,14884.04308,12141.36121,14121.0588,12911.6729,16091.93491,14419.98661,13744.62257,13619.68012
M85139,ALPHA MEDICAL PRACTICE,B8 1JA,52.490776,-1.85618,QHL,NHS Birmingham and Solihull ICB,Y60,Midlands,E08000025,Birmingham,5764.644551,5075.050736,3976.955203,6321.525142,8167.038594,7683.788393,5595.635233,5455.918237,5438.24267,5775.074528
M85739,PAK HEALTH CENTRE,B8 1JA,52.490776,-1.85618,QHL,NHS Birmingham and Solihull ICB,Y60,Midlands,E08000025,Birmingham,5450.648852,4239.97027,3199.655816,7322.415083,6967.370496,7329.633924,4327.57396,4872.739059,5035.085179,5379.267491
M85170,GATE MEDICAL CENTRE,B8 1RE,52.494255,-1.855859,QHL,NHS Birmingham and Solihull ICB,Y60,Midlands,E08000025,Birmingham,5295.232434,5179.493259,4678.644808,7467.296987,7634.724622,7005.691672,5552.462388,5627.680551,5345.14059,5594.223252
M85670,GREENFIELD MEDICAL CENTRE,B8 1RT,52.491684,-1.855764,QHL,NHS Birmingham and Solihull ICB,Y60,Midlands,E08000025,Birmingham,3695.821859,3009.061852,2233.154558,4938.300754,5459.917291,4946.729386,3333.473791,3433.55252,3422.131582,3650.821253
M85110,SALTLEY AND FERNBANK MEDICAL PRACTICE,B8 1RZ,52.490838,-1.851957,QHL,NHS Birmingham and Solihull ICB,Y60,Midlands,E08000025,Birmingham,10361.73999,9336.163712,8914.879816,11832.96866,14083.74992,13427.52487,9848.646665,10080.38921,9931.731789,10456.10075
Y01068,AMAANAH MEDICAL PRACTICE,B8 1RZ,52.490838,-1.851957,QHL,NHS Birmingham and Solihull ICB,Y60,Midlands,E08000025,Birmingham,4904.167631,3949.285705,2606.293811,6195.032865,7710.264825,6559.310022,4147.816774,4447.468099,4482.884969,4794.348727
M85803,PEARL MEDICAL CENTRE,B8 2HB,52.493832,-1.83468,QHL,NHS Birmingham and Solihull ICB,Y60,Midlands,E08000025,Birmingham,11202.65319,8570.870435,5200.942694,14302.73431,14387.31931,14339.24065,8254.881315,9584.559287,10105.82836,10740.84021
M85066,WARD END MEDICAL CENTRE,B8 2JN,52.493159,-1.826484,QHL,NHS Birmingham and Solihull ICB,Y60,Midlands,E08000025,Birmingham,7415.470578,7641.916082,7772.941367,7991.687677,10058.21962,8686.328589,7617.615161,7768.797021,8016.915454,8117.327424
M85722,NASEBY MEDICAL CENTRE,B8 3HE,52.489175,-1.844953,QHL,NHS Birmingham and Solihull ICB,Y60,Midlands,E08000025,Birmingham,5555.401355,4448.683536,3880.603169,5782.667004,7783.603873,7351.104672,4916.221226,4943.96734,5145.106551,5476.006269
M85149,ALUM ROCK MEDICAL CENTRE,B8 3QD,52.489901,-1.850664,QHL,NHS Birmingham and Solihull ICB,Y60,Midlands,E08000025,Birmingham,5801.991265,5303.586457,4703.773848,7191.484349,7870.167695,7753.167731,5826.361725,5773.175535,5633.626404,5951.557603
M85680,COTTERILS LANE SURGERY,B8 3RZ,52.485903,-1.828598,QHL,NHS Birmingham and Solihull ICB,Y60,Midlands,E08000025,Birmingham,2656.494952,1856.461141,1252.397548,3431.428838,3489.889025,3441.033535,1949.554038,2194.742179,2507.979664,2647.937744
Y02794,OAKLEAF,B8 3SW,52.48749,-1.849053,QHL,NHS Birmingham and Solihull ICB,Y60,Midlands,E08000025,Birmingham,12535.199,9080.407282,5521.581524,13784.34104,19856.67392,16769.33355,8607.724916,10313.52757,11205.98491,12040.48721
Y03597,HAMD MEDICAL PRACTICE,B8 3SW,52.48749,-1.849053,QHL,NHS Birmingham and Solihull ICB,Y60,Midlands,E08000025,Birmingham,7177.096707,6083.049602,3852.780958,8145.71905,11885.27244,9711.697129,6308.691893,6620.317005,7013.079258,7417.871939
M84002,POOL MEDICAL CENTRE,B80 7QU,52.270794,-1.896705,QWU,NHS Coventry and Warwickshire ICB,Y60,Midlands,E07000221,Stratford-on-Avon,8333.87729,9403.080831,10946.39615,6462.879353,7434.999124,6948.052351,9638.560532,8889.270921,8817.520123,8537.099957
M85781,BORDESLEY GREEN SURGERY,B9 5EG,52.476787,-1.855224,QHL,NHS Birmingham and Solihull ICB,Y60,Midlands,E08000025,Birmingham,4035.885364,3030.580851,2593.354913,5047.097552,5994.059035,5049.126961,3164.683517,3519.709297,3953.400936,4117.75984
M85034,OMNIA PRACTICE,B9 5PU,52.475709,-1.839082,QHL,NHS Birmingham and Solihull ICB,Y60,Midlands,E08000025,Birmingham,16723.15381,14587.61078,11238.52341,19188.90836,24706.60069,21427.99334,14977.01196,15677.29791,15615.70122,16487.54504
M85061,YARDLEY GREEN MEDICAL CENTRE,B9 5PU,52.475709,-1.839082,QHL,NHS Birmingham and Solihull ICB,Y60,Midlands,E08000025,Birmingham,11884.73813,11771.96034,10435.03375,14345.9659,18065.97102,15633.61708,12038.43801,12410.68162,12655.32486,13102.06869
M89024,GRAFTON ROAD SURGERY,B90 1NG,52.407753,-1.868449,QHL,NHS Birmingham and Solihull ICB,Y60,Midlands,E08000029,Solihull,4060.915673,4417.696754,4604.834753,4099.348386,4485.95852,4735.206776,4742.315331,4393.254876,4350.032506,4407.808647
M89015,NORTHBROOK HEALTH CENTRE,B90 3LX,52.419657,-1.821273,QHL,NHS Birmingham and Solihull ICB,Y60,Midlands,E08000029,Solihull,12333.29993,13142.21449,12983.9111,8253.901632,11234.23665,10326.22546,12740.01433,11942.92206,12419.53689,12105.54017
M89003,GPS HEALTHCARE,B90 4DD,52.395171,-1.825288,QHL,NHS Birmingham and Solihull ICB,Y60,Midlands,E08000029,Solihull,39660.60822,44361.12234,42920.69985,38364.79021,32014.55113,28167.07355,41701.02068,40460.20301,39195.26969,37541.04027
M89017,SOLIHULL HEALTHCARE PARTNERSHIP,B91 2AG,52.419642,-1.775235,QHL,NHS Birmingham and Solihull ICB,Y60,Midlands,E08000029,Solihull,57014.40732,59641.66807,56776.81396,43876.14272,47113.99787,38985.31021,55372.1859,53591.11152,53821.73667,51596.2727
M89608,HAMPTON SURGERY,B92 0AH,52.424182,-1.701802,QHL,NHS Birmingham and Solihull ICB,Y60,Midlands,E08000029,Solihull,3716.413123,3799.507375,3781.767632,2502.037982,3229.355052,2385.055702,3670.362119,3409.980138,3767.871956,3560.449518
M89005,ST. MARGARETS MEDICAL PRACTICE,B92 7JS,52.438008,-1.807365,QHL,NHS Birmingham and Solihull ICB,Y60,Midlands,E08000029,Solihull,8599.702447,9593.208041,9986.051452,7840.876381,7807.217111,7016.687115,9303.56658,8919.019382,8807.308173,8538.715015
M89007,RICHMOND MEDICAL CENTRE,B92 7SA,52.447599,-1.799164,QHL,NHS Birmingham and Solihull ICB,Y60,Midlands,E08000029,Solihull,6731.537066,7107.266974,6556.461934,5695.480987,7385.143602,6861.521251,6459.363161,6705.628138,6732.787091,6752.097215
M89019,HOBS MOAT MEDICAL CENTRE,B92 8ED,52.444192,-1.788925,QHL,NHS Birmingham and Solihull ICB,Y60,Midlands,E08000029,Solihull,11329.37993,11682.39231,10171.92017,8909.730563,12097.6324,10056.4566,11074.11267,10814.79234,10981.05638,10842.36641
M89030,ARDEN MEDICAL CENTRE,B93 0QA,52.379799,-1.744762,QHL,NHS Birmingham and Solihull ICB,Y60,Midlands,E08000029,Solihull,5988.693731,6123.649696,5761.033933,3608.018511,3901.444291,3351.486655,5704.748426,5297.949489,6143.579722,5724.765762
M89010,DORRIDGE SURGERY,B93 8LH,52.372757,-1.752074,QHL,NHS Birmingham and Solihull ICB,Y60,Midlands,E08000029,Solihull,10997.02554,11991.87127,12477.3738,7314.009404,7321.484405,5801.150642,10965.46501,10407.05608,11225.07484,10411.48621
M84047,TANWORTH-IN-ARDEN MED CTR,B94 5DY,52.342097,-1.844748,QWU,NHS Coventry and Warwickshire ICB,Y60,Midlands,E07000221,Stratford-on-Avon,5355.786098,5983.440322,6679.34796,2466.953141,3527.329786,3400.374046,5662.266273,5243.857487,5873.026683,5502.128787
M84620,LAPWORTH SURGERY,B94 6LH,52.337823,-1.728375,QWU,NHS Coventry and Warwickshire ICB,Y60,Midlands,E07000222,Warwick,3031.395412,2916.740763,3729.054629,1598.948396,2245.647137,1699.995028,2929.501222,2703.519034,3228.395706,2999.135604
M84024,HENLEY-IN-ARDEN MED CTR,B95 5GD,52.290667,-1.778717,QWU,NHS Coventry and Warwickshire ICB,Y60,Midlands,E07000221,Stratford-on-Avon,6711.092129,8511.601739,11039.88412,4801.521369,4335.68207,4867.959416,8604.408229,7785.870552,7928.276515,7469.22895
M81077,THE RIDGEWAY SURGERY,B96 6DS,52.260377,-1.938925,QGH,NHS Herefordshire and Worcestershire ICB,Y60,Midlands,E07000236,Redditch,4806.060929,5519.637227,5799.120321,3511.759804,3462.54669,3116.483331,5583.021884,4929.386986,5035.938385,4748.020127
M81002,ELGAR HOUSE,B97 4AB,52.308387,-1.942364,QGH,NHS Herefordshire and Worcestershire ICB,Y60,Midlands,E07000236,Redditch,14495.48841,14290.59058,15078.36737,12436.25277,17059.19869,15211.5833,14551.8255,14245.86752,14373.25317,14499.00269
M81020,THE DOW SURGERY,B97 4AJ,52.307425,-1.942439,QGH,NHS Herefordshire and Worcestershire ICB,Y60,Midlands,E07000236,Redditch,12142.74275,11961.37535,12703.50026,11265.6241,13822.13413,12831.76959,12341.63778,12039.55227,11867.92643,12012.5029
M81001,ST STEPHEN'S MEDICAL PARTNERSHIP,B97 4AL,52.307641,-1.943289,QGH,NHS Herefordshire and Worcestershire ICB,Y60,Midlands,E07000236,Redditch,17669.71386,18255.56221,17913.07625,16167.64613,19929.9606,17876.72665,18630.37309,17841.23846,16942.91338,17082.98537
M81092,THE BRIDGE SURGERY,B97 4LA,52.293558,-1.946321,QGH,NHS Herefordshire and Worcestershire ICB,Y60,Midlands,E07000236,Redditch,5642.060904,5910.800637,6124.414087,4837.846912,5737.302915,5008.424248,6090.367324,5663.495463,5713.44484,5607.691751
M81041,HILLVIEW MEDICAL CENTRE,B97 4RN,52.305568,-1.951153,QGH,NHS Herefordshire and Worcestershire ICB,Y60,Midlands,E07000236,Redditch,11105.25022,11593.74432,11830.08192,9325.288358,12318.30903,10665.69066,11863.23262,11189.18337,11255.46244,11166.99667
M81616,CRABBS CROSS MEDICAL CENTRE,B97 5JX,52.281407,-1.943704,QGH,NHS Herefordshire and Worcestershire ICB,Y60,Midlands,E07000236,Redditch,3329.453989,3041.08111,2980.120521,2774.70052,3849.969643,3074.145143,3437.514485,3049.535348,3308.164393,3273.061506
M81617,CRABBS CROSS SURGERY,B97 5JX,52.281407,-1.943704,QGH,NHS Herefordshire and Worcestershire ICB,Y60,Midlands,E07000236,Redditch,5515.176128,5070.116044,4106.769586,3778.30208,6371.741765,4713.576182,4988.785554,4784.471187,4969.201606,4930.857792
M81019,WINYATES HEALTH CENTRE,B98 0NR,52.303347,-1.894547,QGH,NHS Herefordshire and Worcestershire ICB,Y60,Midlands,E07000236,Redditch,17597.71974,18606.55402,16955.81144,15713.09069,18969.79043,17801.04331,19510.9834,17907.12237,17318.3137,17390.72314
Y04543,JULIAN HOUSE HEALTHCARE SERVICE,BA1 1JW,51.378725,-2.356708,QOX,"NHS Bath and North East Somerset, Swindon and Wiltshire ICB",Y58,South West,E06000022,Bath and North East Somerset,40.68451529,39.70248558,8.339862634,34.56003732,2.284479352,31.51862961,28.57439395,32.58219712,41.39640945,39.91474247
L81070,NEWBRIDGE SURGERY,BA1 3PT,51.387649,-2.394574,QOX,"NHS Bath and North East Somerset, Swindon and Wiltshire ICB",Y58,South West,E06000022,Bath and North East Somerset,8969.412005,8919.248179,9156.311806,7381.007923,6332.395592,6078.859018,8539.736806,8277.552025,8777.390703,8372.61095
L81071,FAIRFIELD PARK HEALTH CENTRE,BA1 6EA,51.394971,-2.352596,QOX,"NHS Bath and North East Somerset, Swindon and Wiltshire ICB",Y58,South West,E06000022,Bath and North East Somerset,14297.87184,11126.41662,10318.36445,9113.014417,14021.01562,9348.147856,10565.9625,10651.927,13605.45083,12966.85538
L81027,BATHEASTON MEDICAL CENTRE,BA1 7NP,51.406032,-2.317387,QOX,"NHS Bath and North East Somerset, Swindon and Wiltshire ICB",Y58,South West,E06000022,Bath and North East Somerset,8709.563561,8606.060115,9723.229008,6080.799743,5657.638893,4761.606858,8359.715414,7838.475774,8961.548762,8331.557476
L85032,BRUTON SURGERY,BA10 0EG,51.112114,-2.451749,QSL,NHS Somerset ICB,Y58,South West,E07000189,South Somerset,5243.50528,5002.210069,5875.361556,3835.23898,3626.410234,2919.716166,5174.438181,4590.355022,5212.949116,4868.964173
L85008,FROME MEDICAL CENTRE,BA11 2FH,51.237318,-2.311568,QSL,NHS Somerset ICB,Y58,South West,E07000187,Mendip,29359.50238,30216.91159,33893.16067,27716.31286,29816.90557,18362.77232,29980.8944,28530.10924,29100.16657,27489.55743
L85020,BECKINGTON FAMILY PRACTICE,BA11 6SE,51.266482,-2.281552,QSL,NHS Somerset ICB,Y58,South West,E07000187,Mendip,11480.69351,12837.13038,14547.76738,9181.171831,9060.477452,6803.38543,11949.69811,11520.79555,11984.76489,11207.55797
J83060,MERE SURGERY,BA12 6DT,51.089873,-2.265342,QOX,"NHS Bath and North East Somerset, Swindon and Wiltshire ICB",Y58,South West,E06000054,Wiltshire,5059.483571,6199.029705,8473.661685,4425.929659,3139.976449,2837.346788,6451.611873,5717.659191,5951.326731,5484.22974
J83018,AVENUE SURGERY,BA12 9AA,51.206323,-2.178536,QOX,"NHS Bath and North East Somerset, Swindon and Wiltshire ICB",Y58,South West,E06000054,Wiltshire,18264.57029,21804.07037,26435.49401,16433.15797,15257.38907,13302.26874,22086.38963,20303.37957,19894.984,18906.07671
J83040,WESTBURY GROUP PRACTICE,BA13 3FQ,51.252658,-2.203443,QOX,"NHS Bath and North East Somerset, Swindon and Wiltshire ICB",Y58,South West,E06000054,Wiltshire,24785.92523,25858.88312,26928.07242,20572.47288,24894.06465,18102.91159,25886.11397,24255.93829,24946.60773,23920.05331
J83008,LOVEMEAD GROUP PRACTICE,BA14 7EH,51.318597,-2.202645,QOX,"NHS Bath and North East Somerset, Swindon and Wiltshire ICB",Y58,South West,E06000054,Wiltshire,19465.62012,20222.72901,21341.86224,17078.80023,18231.95229,13446.68045,20341.32694,19003.25428,19117.87494,18267.19577
J83016,TROWBRIDGE HEALTH CENTRE,BA14 8LW,51.325367,-2.208214,QOX,"NHS Bath and North East Somerset, Swindon and Wiltshire ICB",Y58,South West,E06000054,Wiltshire,31904.35396,31998.13149,32049.37296,27843.23014,30107.19794,23024.47366,31559.3681,30185.1696,30993.24967,29797.93327
J83030,BRADFORD-ON-AVON AND MELKSHAM HEALTH,BA15 1DQ,51.345216,-2.253132,QOX,"NHS Bath and North East Somerset, Swindon and Wiltshire ICB",Y58,South West,E06000054,Wiltshire,19518.78159,21486.71055,24636.65083,15301.67697,14187.31293,11143.58535,20665.44331,19455.42922,20280.35451,18909.83914
L85029,VINE SURGERY PARTNERSHIP,BA16 0ET,51.126187,-2.737853,QSL,NHS Somerset ICB,Y58,South West,E07000187,Mendip,13231.72058,14985.17797,18426.49654,12252.84634,10361.06432,9287.110567,14652.39935,13964.03381,13949.31714,13249.98615
L81122,ST. MARY'S SURGERY,BA2 0HX,51.326082,-2.479869,QOX,"NHS Bath and North East Somerset, Swindon and Wiltshire ICB",Y58,South West,E06000022,Bath and North East Somerset,5638.154827,6518.69231,6884.497985,3673.013813,4457.299298,3418.506818,6211.329725,5732.696588,5822.697521,5462.068915
L81069,ST. MICHAEL'S SURGERY,BA2 1ER,51.381854,-2.399483,QOX,"NHS Bath and North East Somerset, Swindon and Wiltshire ICB",Y58,South West,E06000022,Bath and North East Somerset,8296.27388,8679.189039,8171.714228,10590.81896,8627.260179,6672.179367,9255.145541,8632.077306,8273.483294,8033.287705
L81644,RUSH HILL SURGERY,BA2 2QH,51.365379,-2.393951,QOX,"NHS Bath and North East Somerset, Swindon and Wiltshire ICB",Y58,South West,E06000022,Bath and North East Somerset,9229.795965,8415.165371,8565.833951,8117.239151,8948.191672,6201.43094,7874.221407,8090.01269,8442.507643,8106.346137
L81039,HEART OF BATH,BA2 3HT,51.376364,-2.373947,QOX,"NHS Bath and North East Somerset, Swindon and Wiltshire ICB",Y58,South West,E06000022,Bath and North East Somerset,25903.48366,25073.19332,24171.70397,24668.13701,17839.92328,17553.16488,23730.48683,23619.95836,24679.613,23610.64578
L81068,THE PULTENEY PRACTICE,BA2 4BY,51.385332,-2.352551,QOX,"NHS Bath and North East Somerset, Swindon and Wiltshire ICB",Y58,South West,E06000022,Bath and North East Somerset,12931.74673,11978.84855,13411.19731,13281.52048,7298.704311,8230.658627,11354.85689,11615.0669,12716.80276,12043.88114
L81020,WIDCOMBE SURGERY,BA2 4JT,51.376371,-2.354321,QOX,"NHS Bath and North East Somerset, Swindon and Wiltshire ICB",Y58,South West,E06000022,Bath and North East Somerset,9241.507182,7906.980806,7301.188493,8486.845532,6001.913893,5574.684579,7207.496563,7515.405475,8564.816278,8116.296523
L81065,COMBE DOWN SURGERY,BA2 5EG,51.361003,-2.345599,QOX,"NHS Bath and North East Somerset, Swindon and Wiltshire ICB",Y58,South West,E06000022,Bath and North East Somerset,13989.95453,12666.45724,13264.07941,11809.76102,11229.41971,8019.935497,12305.11419,12001.79518,13699.33726,12847.42699
L81617,UNIVERSITY MEDICAL CENTRE,BA2 7AY,51.379324,-2.327157,QOX,"NHS Bath and North East Somerset, Swindon and Wiltshire ICB",Y58,South West,E06000022,Bath and North East Somerset,13685.89817,3363.352856,2579.465893,8273.917415,9389.399443,8353.263026,1731.634876,4603.426847,9878.360926,9649.596241
L81123,HILLCREST SURGERY,BA2 8JQ,51.311982,-2.431687,QOX,"NHS Bath and North East Somerset, Swindon and Wiltshire ICB",Y58,South West,E06000022,Bath and North East Somerset,5915.482694,6198.198305,6241.361724,4163.380927,5013.680421,3722.355906,5889.119853,5583.202609,5797.32708,5486.081404
L85017,"PENN HILL SURGERY, YEOVIL",BA20 1SB,50.939476,-2.632732,QSL,NHS Somerset ICB,Y58,South West,E07000189,South Somerset,10513.15925,12129.72945,14996.25984,11425.40825,10291.35845,8897.085854,12645.75953,11677.29718,10776.82937,10494.86784
L85022,DIAMOND HEALTH GROUP,BA20 1UJ,50.938038,-2.637608,QSL,NHS Somerset ICB,Y58,South West,E07000189,South Somerset,13848.1929,16157.22891,17884.66558,13301.29145,11919.18929,10880.6825,15900.23046,14865.97498,13625.60924,13213.87023
L85015,"PRESTON GROVE MEDICAL CENTRE, YEOVIL",BA20 2BQ,50.94185,-2.644279,QSL,NHS Somerset ICB,Y58,South West,E07000189,South Somerset,15204.62286,16974.94782,17496.57809,12999.58707,16725.86885,11498.33403,16961.19337,15561.46298,15079.55755,14542.37402
L85048,"RYALLS PARK MEDICAL CENTRE, YEOVIL",BA21 3BA,50.951832,-2.640872,QSL,NHS Somerset ICB,Y58,South West,E07000189,South Somerset,5605.618775,6245.923361,5656.860165,5528.877311,73.28716059,7709.975874,6229.34123,5862.539526,4895.457159,5317.634966
L85064,OAKLANDS SURGERY,BA21 5RL,50.954243,-2.617414,QSL,NHS Somerset ICB,Y58,South West,E07000189,South Somerset,11673.71307,10821.08693,7117.197214,10558.29167,21104.78164,10031.77768,9925.969731,10369.72567,9611.273369,9674.349015
L85044,QUEEN CAMEL MEDICAL CENTRE,BA22 7LT,51.018174,-2.579685,QSL,NHS Somerset ICB,Y58,South West,E07000189,South Somerset,6176.318772,7369.118859,9637.554054,3726.499829,2781.909363,4006.66696,7535.748427,6487.349894,6906.933816,6471.893788
Y01163,WEST COKER SURGERY,BA22 9AH,50.919425,-2.686477,QSL,NHS Somerset ICB,Y58,South West,E07000189,South Somerset,4051.869487,4698.166701,5749.090072,2569.117364,2426.221286,2531.139716,4783.77703,4137.526063,4302.141447,4036.491187
L81025,SOMER VALLEY MEDICAL GROUP,BA3 2UH,51.28783,-2.476847,QOX,"NHS Bath and North East Somerset, Swindon and Wiltshire ICB",Y58,South West,E06000022,Bath and North East Somerset,19015.23372,21961.26271,24119.2802,14037.35567,16007.47863,12870.18589,21680.60688,19835.70851,19134.29894,18194.68198
L81010,HOPE HOUSE SURGERY,BA3 3EP,51.293053,-2.446482,QOX,"NHS Bath and North East Somerset, Swindon and Wiltshire ICB",Y58,South West,E06000022,Bath and North East Somerset,8029.291703,7929.032093,6874.771493,6894.374157,10184.55006,5800.096219,8250.641428,7526.327676,7667.514002,7387.401335
L81132,WESTFIELD SURGERY,BA3 3UJ,51.284957,-2.458993,QOX,"NHS Bath and North East Somerset, Swindon and Wiltshire ICB",Y58,South West,E06000022,Bath and North East Somerset,5242.066362,4609.143492,3701.846209,3097.090722,5997.428632,3821.782726,4635.72591,4272.552864,4512.066425,4408.52387
L85611,OAKHILL SURGERY,BA3 5HT,51.223269,-2.523892,QSL,NHS Somerset ICB,Y58,South West,E07000187,Mendip,3173.728051,2895.2454,3056.219622,2092.762007,2651.329999,2054.592694,2934.380429,2679.152223,3137.47953,2975.046504
L85046,MENDIP COUNTRY PRACTICE,BA3 5NQ,51.241343,-2.450479,QSL,NHS Somerset ICB,Y58,South West,E07000187,Mendip,5955.97164,7200.549088,7351.40452,4594.820841,4785.082164,3790.694507,7005.982458,6315.138585,6200.216998,5838.788624
L85043,PARK MEDICAL PRACTICE,BA4 5RT,51.186037,-2.54672,QSL,NHS Somerset ICB,Y58,South West,E07000187,Mendip,11272.41621,11691.9092,13188.05176,9428.953642,10922.36397,7747.489729,11467.69754,10923.2777,11343.58149,10804.16773
L85053,GROVE HOUSE SURGERY,BA4 5UH,51.187325,-2.557739,QSL,NHS Somerset ICB,Y58,South West,E07000187,Mendip,6480.514514,6696.638605,7294.656409,5781.847185,5877.422618,4469.4431,6704.046346,6277.471669,6528.393787,6219.551184
L85002,WELLS HEALTH CENTRE,BA5 1XJ,51.203403,-2.655326,QSL,NHS Somerset ICB,Y58,South West,E07000187,Mendip,12036.45615,15245.40714,19970.1399,11856.19756,8221.890115,7926.36408,14488.05103,13972.11111,13448.40215,12620.09644
L85034,WELLS CITY PRACTICE,BA5 1XJ,51.203403,-2.655326,QSL,NHS Somerset ICB,Y58,South West,E07000187,Mendip,8533.410828,9756.32484,12531.71414,9415.353263,5837.80716,5688.140557,9686.290893,9267.215049,9369.920689,8817.653669
L85047,GLASTONBURY HEALTH CENTRE,BA6 9DD,51.148733,-2.712893,QSL,NHS Somerset ICB,Y58,South West,E07000187,Mendip,6011.748574,6804.400625,7511.349071,8790.078188,4387.629761,4585.68646,6585.877609,6670.00479,6476.44781,6192.833608
L85039,GLASTONBURY SURGERY,BA6 9LP,51.148462,-2.721853,QSL,NHS Somerset ICB,Y58,South West,E07000187,Mendip,14084.20635,15477.41986,18753.2727,13776.75423,10602.33663,9940.260871,15387.14485,14590.40223,14872.33651,14132.52517
L85040,"MILLBROOK SURGERY, CASTLE CARY",BA7 7EE,51.087618,-2.51716,QSL,NHS Somerset ICB,Y58,South West,E07000189,South Somerset,7013.55099,7291.757093,9575.949673,5174.407476,4743.74548,3892.841872,7992.083351,6715.422965,7262.564757,6757.106324
P81707,WILLIAM HOPWOOD STREET SURGERY,BB1 1LX,53.746299,-2.467033,QE1,NHS Lancashire and South Cumbria ICB,Y62,North West,E06000008,Blackburn with Darwen,5359.516461,4644.090159,3687.961967,6067.904972,7023.348175,8699.175287,5519.556593,5166.845337,4880.30392,5453.134625
P81724,PRINGLE STREET SURGERY,BB1 1SB,53.742039,-2.467594,QE1,NHS Lancashire and South Cumbria ICB,Y62,North West,E06000008,Blackburn with Darwen,2694.463855,2339.947558,1793.30107,2771.733247,3686.227981,4409.638043,2630.436725,2559.377494,2487.737568,2776.022639
P81167,STEPPING STONE PRACTICE,BB1 1XA,53.747582,-2.456646,QE1,NHS Lancashire and South Cumbria ICB,Y62,North West,E06000008,Blackburn with Darwen,5905.05638,6074.879944,4718.995824,6586.852023,7911.462324,10978.49228,6293.480747,6412.137214,5618.459102,6422.464078
P81734,THE CORNERSTONE PRACTICE,BB1 2HR,53.739837,-2.452861,QE1,NHS Lancashire and South Cumbria ICB,Y62,North West,E06000008,Blackburn with Darwen,19626.00234,20780.60195,15478.24181,26560.83576,24756.4191,33665.74373,22537.469,21946.50102,19011.95721,21210.02518
P81755,THE WEAVERS PRACTICE,BB1 4LA,53.768459,-2.414211,QE1,NHS Lancashire and South Cumbria ICB,Y62,North West,E07000120,Hyndburn,8913.825501,10878.61164,11352.55085,9728.508356,9309.024006,11034.36754,11238.49889,10449.77744,9120.294975,9407.405859
P81771,PRIMROSE BANK MEDICAL CENTRE,BB1 5ER,53.752542,-2.475521,QE1,NHS Lancashire and South Cumbria ICB,Y62,North West,E06000008,Blackburn with Darwen,9562.972224,10198.52195,8776.202817,11506.89276,11213.71607,14469.73919,10949.59329,10447.31897,8924.774209,9756.518956
P81622,SHIFA SURGERY,BB1 6DY,53.757295,-2.475999,QE1,NHS Lancashire and South Cumbria ICB,Y62,North West,E06000008,Blackburn with Darwen,11461.55869,9121.353833,7318.040152,11270.35937,14480.05765,16502.01295,11406.69276,10093.00749,9740.965799,10755.12287
P81005,LITTLE HARWOOD HEALTH CENTRE,BB1 6PH,53.758668,-2.467263,QE1,NHS Lancashire and South Cumbria ICB,Y62,North West,E06000008,Blackburn with Darwen,12274.63883,13646.64293,13533.22913,13909.4218,14520.21402,16517.87813,14508.81497,13659.26765,11928.50966,12616.91493
P81683,OLIVE MEDICAL CENTRE,BB1 7EP,53.752309,-2.484193,QE1,NHS Lancashire and South Cumbria ICB,Y62,North West,E06000008,Blackburn with Darwen,7713.14104,5910.254694,4780.0666,6302.346161,9210.942544,12303.34544,7051.824866,6558.794718,6468.398188,7343.640276
P81155,BROWNHILL SURGERY,BB1 9BA,53.775276,-2.479328,QE1,NHS Lancashire and South Cumbria ICB,Y62,North West,E06000008,Blackburn with Darwen,6011.213781,5875.709334,5658.965961,4237.064387,6549.753608,5663.199379,6078.835479,5517.339206,5719.122382,5710.733932
P81704,BLAKEWATER HEALTHCARE,BB1 9SR,53.76497,-2.473916,QE1,NHS Lancashire and South Cumbria ICB,Y62,North West,E06000008,Blackburn with Darwen,11121.57395,10928.07799,9967.023955,12408.86525,13538.64469,15816.45173,11466.22337,11340.88642,10379.78327,11195.28354
P81035,COLNE ROAD SURGERY,BB10 1LS,53.801226,-2.236848,QE1,NHS Lancashire and South Cumbria ICB,Y62,North West,E07000117,Burnley,8426.34359,7437.030872,6459.226054,10559.53731,11318.73954,16014.58898,7847.037897,8573.860282,8377.373857,9522.956125
P81053,BRIERCLIFFE SURGERY,BB10 2EZ,53.810388,-2.212859,QE1,NHS Lancashire and South Cumbria ICB,Y62,North West,E07000117,Burnley,8259.325436,9451.465507,9070.06959,8146.488688,8768.088476,9414.084502,9524.883858,8957.573451,8249.114202,8423.859747
P81095,THURSBY SURGERY,BB10 3BF,53.800664,-2.231682,QE1,NHS Lancashire and South Cumbria ICB,Y62,North West,E07000117,Burnley,8653.818831,8873.794528,10300.93257,8775.737172,9766.556087,13568.54248,9521.219035,9319.827288,8653.646184,9390.880628
P81047,PARKSIDE SURGERY,BB11 1PS,53.794992,-2.24123,QE1,NHS Lancashire and South Cumbria ICB,Y62,North West,E07000117,Burnley,16294.45857,18645.59431,20681.09047,17602.1025,16760.65575,26261.91835,19490.91273,18957.22282,16855.80106,18266.71865
P81020,BURNLEY GROUP PRACTICE,BB11 2DL,53.791263,-2.238947,QE1,NHS Lancashire and South Cumbria ICB,Y62,North West,E07000117,Burnley,24715.35162,27994.16265,28785.58032,30486.64535,28429.26861,40840.8461,29421.16322,29012.64264,26355.33126,28528.15848
P81780,RIVERSIDE FAMILY PRACTICE,BB11 2DL,53.791263,-2.238947,QE1,NHS Lancashire and South Cumbria ICB,Y62,North West,E07000117,Burnley,5781.751728,4996.194225,3709.579525,7995.325111,8244.030308,10814.35532,5514.740288,5847.713576,5300.852968,6127.878321
P81008,YORKSHIRE STREET MEDICAL CENTRE,BB11 3BT,53.789132,-2.234807,QE1,NHS Lancashire and South Cumbria ICB,Y62,North West,E07000117,Burnley,7219.6823,8725.049483,9563.139745,9148.752137,7586.370005,11976.74666,9515.540996,8963.26662,8253.458259,8811.951519
P81137,BURNLEY WOOD MEDICAL CENTRE,BB11 3HR,53.7842,-2.23575,QE1,NHS Lancashire and South Cumbria ICB,Y62,North West,E07000117,Burnley,6831.521546,8353.070214,8213.231379,8383.675947,7585.917917,10802.69621,8749.304645,8353.522774,7591.227862,8072.948115
P81165,IGHTENHILL MEDICAL CENTRE,BB12 0HL,53.793391,-2.26727,QE1,NHS Lancashire and South Cumbria ICB,Y62,North West,E07000117,Burnley,2730.70149,3220.557428,3115.416666,3737.063295,2956.389839,4590.155836,3483.48942,3327.861467,2842.255897,3104.440888
P81197,ROSEGROVE SURGERY,BB12 6HY,53.789152,-2.279735,QE1,NHS Lancashire and South Cumbria ICB,Y62,North West,E07000117,Burnley,5058.674271,5735.427101,5286.121934,5736.899299,5522.831222,8050.458048,6164.153785,5784.980412,5061.933667,5510.212324
P81130,PADIHAM GROUP PRACTICE,BB12 8BP,53.800549,-2.313805,QE1,NHS Lancashire and South Cumbria ICB,Y62,North West,E07000117,Burnley,13910.84502,17030.70192,19228.59572,14939.76549,13162.81693,17370.25289,18176.5181,16478.36497,14685.99497,15088.63366
P81078,BARNOLDSWICK MED CTR,BB18 5BG,53.915192,-2.185854,QE1,NHS Lancashire and South Cumbria ICB,Y62,North West,E07000122,Pendle,11995.18627,13144.73964,14190.2653,10272.44927,11707.44952,10829.97777,13554.78856,12257.52389,11870.99442,11714.84192
P81065,THE PENDLE MEDICAL PARTNERSHIP,BB18 6QT,53.915882,-2.144307,QE1,NHS Lancashire and South Cumbria ICB,Y62,North West,E07000122,Pendle,15104.02421,17575.02456,19058.97161,12380.12206,14692.20023,16918.29863,18395.51387,16460.00558,15395.24377,15623.702
P81125,OAKENHURST MEDICAL PRACTICE,BB2 1AX,53.750552,-2.486748,QE1,NHS Lancashire and South Cumbria ICB,Y62,North West,E06000008,Blackburn with Darwen,10129.80112,11113.18717,11364.7116,12688.55595,10349.17773,13604.69646,11827.22105,11295.61304,10366.99488,10852.65012
P81694,FAMILY PRACTICE,BB2 1AX,53.750552,-2.486748,QE1,NHS Lancashire and South Cumbria ICB,Y62,North West,E06000008,Blackburn with Darwen,5349.78857,4746.20709,3260.889541,8378.760385,7484.759373,9779.285335,4738.940419,5521.480079,5043.415333,5753.795833
P81061,REDLAM SURGERY,BB2 1UW,53.742584,-2.503837,QE1,NHS Lancashire and South Cumbria ICB,Y62,North West,E06000008,Blackburn with Darwen,4455.60682,5811.260418,6550.439069,6498.151813,4078.846768,7527.28384,6038.774813,5920.826447,4805.303068,5213.600184
P81022,WITTON MEDICAL CENTRE,BB2 2SU,53.740232,-2.507553,QE1,NHS Lancashire and South Cumbria ICB,Y62,North West,E06000008,Blackburn with Darwen,10879.63718,12514.77759,12545.68643,13999.65644,11288.60609,17036.83577,12745.116,12766.96614,11151.34979,12034.17269
P81058,ST GEORGES SURGERY,BB2 3HS,53.738511,-2.475711,QE1,NHS Lancashire and South Cumbria ICB,Y62,North West,E06000008,Blackburn with Darwen,10084.38615,10647.60634,10534.22458,12216.55343,11685.24696,15765.05545,11506.09859,11152.10786,10079.52264,10932.35256
P81709,ROMAN ROAD HEALTH CENTRE,BB2 3UY,53.728431,-2.472202,QE1,NHS Lancashire and South Cumbria ICB,Y62,North West,E06000008,Blackburn with Darwen,5895.308865,6262.41425,4230.756403,8888.465754,7443.595265,9352.209968,6578.425589,6581.427358,5909.070755,6425.541637
Y02657,BENTHAM ROAD HEALTH CENTRE,BB2 4QD,53.730584,-2.50627,QE1,NHS Lancashire and South Cumbria ICB,Y62,North West,E06000008,Blackburn with Darwen,8306.553823,9024.087527,7165.059175,10373.28584,10317.01282,14308.69292,9288.742175,9341.916607,7835.493657,8806.473546
P81214,LIMEFIELD SURGERY,BB2 6PL,53.749882,-2.503894,QE1,NHS Lancashire and South Cumbria ICB,Y62,North West,E06000008,Blackburn with Darwen,4680.21755,4602.074102,4456.558017,4857.836714,5203.294351,5762.383236,4732.989865,4643.479451,4514.813942,4701.949336
P81633,SPRING-FENISCO HEALTHLINK,BB3 1BZ,53.691249,-2.466589,QE1,NHS Lancashire and South Cumbria ICB,Y62,North West,E06000008,Blackburn with Darwen,3718.539977,4001.419217,4019.197315,3666.016316,3537.486933,4455.3872,4274.211338,3902.127972,3754.058002,3859.257381
P81721,HOLLINS GROVE SURGERY,BB3 1ET,53.705346,-2.477472,QE1,NHS Lancashire and South Cumbria ICB,Y62,North West,E06000008,Blackburn with Darwen,2504.955326,2175.033675,2134.282453,3346.319885,2763.371135,4075.603776,2648.615514,2509.065767,2419.148854,2667.617092
P81051,DARWEN HEALTHCARE,BB3 1PY,53.695744,-2.471427,QE1,NHS Lancashire and South Cumbria ICB,Y62,North West,E06000008,Blackburn with Darwen,14310.27337,16802.08849,15438.89731,16616.12643,14865.72643,21997.05735,16911.03975,16618.55447,14563.28499,15678.35085
P81140,DARWEN HEALTHLINK,BB3 1PY,53.695744,-2.471427,QE1,NHS Lancashire and South Cumbria ICB,Y62,North West,E06000008,Blackburn with Darwen,15580.76284,17970.06845,18880.23993,19798.31315,13912.98608,24323.41978,18454.88347,18291.04698,15598.26949,16907.04203
P81099,HASLINGDEN HEALTHCARE LTD,BB4 5SL,53.703953,-2.324674,QE1,NHS Lancashire and South Cumbria ICB,Y62,North West,E07000125,Rossendale,10885.67124,12412.73923,12007.55233,10128.11783,10861.3353,11575.7554,12574.44969,11626.80952,10618.70527,10762.26279
P81212,HAZELVALLEY FAMILY PRACTICE,BB4 5SL,53.703953,-2.324674,QE1,NHS Lancashire and South Cumbria ICB,Y62,North West,E07000125,Rossendale,6126.221445,6644.998069,6295.745154,6247.704624,7160.066946,6829.559391,6723.00785,6425.529712,5871.343608,6015.075975
P81686,ROSSENDALE VALLEY MEDICAL PRACTICE,BB4 5SL,53.703953,-2.324674,QE1,NHS Lancashire and South Cumbria ICB,Y62,North West,E07000125,Rossendale,2551.020481,2451.765845,2143.879879,2638.92446,2720.794803,2834.080329,2506.484187,2432.144982,2249.981412,2337.59625
P81132,WATERFOOT MEDICAL PRACTICE,BB4 7DN,53.691311,-2.251827,QE1,NHS Lancashire and South Cumbria ICB,Y62,North West,E07000125,Rossendale,9396.041429,10896.98595,10503.18309,10483.27192,9001.283089,11352.55761,10580.34483,10458.66525,9268.743124,9581.315298
P81118,ILEX VIEW MEDICAL PRACTICE,BB4 7PL,53.70081,-2.280663,QE1,NHS Lancashire and South Cumbria ICB,Y62,North West,E07000125,Rossendale,9851.168991,10759.82073,8066.214183,12238.07386,11292.32337,10188.18768,11040.48084,10349.99434,8887.928018,9082.966967
Y02606,FAIRMORE MEDICAL PRACTICE,BB4 7PL,53.70081,-2.280663,QE1,NHS Lancashire and South Cumbria ICB,Y62,North West,E07000125,Rossendale,6106.306617,5620.228422,3242.76637,8016.971374,8148.859924,8828.022449,5342.694293,5923.526115,5406.013733,5919.31504
P81003,ST JAMES' MEDICAL CENTRE,BB4 8HH,53.708959,-2.289474,QE1,NHS Lancashire and South Cumbria ICB,Y62,North West,E07000125,Rossendale,8757.296578,11480.06996,11884.61868,8393.852751,6030.473404,8145.424125,11428.95785,10276.96011,8973.892328,8849.622097
P81147,ARG HEALTHCARE,BB5 0AL,53.752796,-2.375369,QE1,NHS Lancashire and South Cumbria ICB,Y62,North West,E07000120,Hyndburn,5003.463532,5924.106908,6005.954875,7019.988372,5251.208588,7738.050902,6254.490325,6076.689889,5238.935334,5613.80267
P81160,OSWALD MEDICAL CENTRE,BB5 1RP,53.752456,-2.383449,QE1,NHS Lancashire and South Cumbria ICB,Y62,North West,E07000120,Hyndburn,16162.68315,17445.20172,16825.52115,20988.00563,19191.19246,26182.68287,18375.65907,18348.06427,16773.60592,18184.96746
P81166,DR BELLO'S SURGERY,BB5 1RT,53.752328,-2.384874,QE1,NHS Lancashire and South Cumbria ICB,Y62,North West,E07000120,Hyndburn,2409.985557,2791.89486,3029.869615,3155.415167,2293.523952,3554.837375,3082.673006,2858.887193,2387.279406,2562.413101
P81182,RICHMOND MEDICAL CENTRE,BB5 1RT,53.752328,-2.384874,QE1,NHS Lancashire and South Cumbria ICB,Y62,North West,E07000120,Hyndburn,6654.116179,6460.274131,5963.909822,8799.047566,9099.912638,11745.05017,6873.696351,7177.214115,6195.317193,7027.77714
P81711,DILL HALL SURGERY,BB5 1RT,53.752328,-2.384874,QE1,NHS Lancashire and South Cumbria ICB,Y62,North West,E07000120,Hyndburn,2767.103437,2656.374641,2715.248515,2806.450804,3399.141381,3881.951732,3033.213077,2792.929036,2844.414446,3000.045039
P81726,KING STREET MEDICAL CTR,BB5 1RT,53.752328,-2.384874,QE1,NHS Lancashire and South Cumbria ICB,Y62,North West,E07000120,Hyndburn,1704.989598,1752.329582,1909.157142,2024.794537,1898.563205,2690.640498,1972.621318,1870.038327,1683.599739,1834.655853
Y02605,ACCRINGTON VICTORIA GP PRACTICE,BB5 1RT,53.752328,-2.384874,QE1,NHS Lancashire and South Cumbria ICB,Y62,North West,E07000120,Hyndburn,3749.008965,3749.66473,3168.777354,4350.770944,4892.354094,5600.01411,3840.162223,3895.680798,3525.652431,3836.806683
P81036,PEEL HOUSE MEDICAL PRACTICE,BB5 2EJ,53.750892,-2.365995,QE1,NHS Lancashire and South Cumbria ICB,Y62,North West,E07000120,Hyndburn,17471.13642,22077.39446,22480.0891,22036.79869,20801.36424,24208.28133,23269.31873,21714.09676,18632.3428,19468.73358
P81699,HIGHER HEYS SURGERY,BB5 3BP,53.740865,-2.394094,QE1,NHS Lancashire and South Cumbria ICB,Y62,North West,E07000120,Hyndburn,2226.965019,2577.070993,2732.651911,2289.178787,2331.741568,2873.281031,2701.260791,2515.365757,2352.430218,2430.55784
P81218,THE CLAYTON MEDICAL CTR.,BB5 5HU,53.774348,-2.384029,QE1,NHS Lancashire and South Cumbria ICB,Y62,North West,E07000120,Hyndburn,6203.629573,7766.705686,7505.364215,7971.527688,6235.502021,7575.012687,8014.421939,7474.225469,6330.372435,6517.068473
P81730,GREAT HARWOOD MEDICAL GROUP,BB6 7QR,53.788353,-2.403646,QE1,NHS Lancashire and South Cumbria ICB,Y62,North West,E07000120,Hyndburn,8937.011088,10068.82415,11113.46782,9481.492949,9967.808585,10743.99908,11097.81791,9963.600422,9418.051749,9616.943849
P81069,PENDLESIDE MEDICAL PRACT,BB7 2JG,53.873954,-2.3932,QE1,NHS Lancashire and South Cumbria ICB,Y62,North West,E07000124,Ribble Valley,11944.87893,12820.83617,12776.94541,10612.58867,9450.909001,9531.215904,13612.95096,11787.48572,11434.67511,11149.15623
P81100,THE CASTLE MEDICAL GROUP,BB7 2JG,53.873954,-2.3932,QE1,NHS Lancashire and South Cumbria ICB,Y62,North West,E07000124,Ribble Valley,15784.22644,18917.18597,18258.64021,14453.05533,11889.99976,12549.35076,18975.98645,16845.78146,15400.764,14973.05201
P81620,SLAIDBURN HEALTH CENTRE,BB7 3EP,53.967313,-2.444001,QE1,NHS Lancashire and South Cumbria ICB,Y62,North West,E07000124,Ribble Valley,1492.536948,1642.111198,1732.757593,1261.43703,798.7887082,886.0980006,1521.208748,1443.003165,1558.846816,1457.934494
P81017,WHALLEY MEDICAL CENTRE,BB7 9SL,53.819793,-2.406348,QE1,NHS Lancashire and South Cumbria ICB,Y62,North West,E07000124,Ribble Valley,14927.30701,16105.695,15588.64101,10362.05825,9250.0435,9373.290068,16028.62469,13963.25005,14205.57196,13480.72967
P81025,THE RICHMOND HILL PRACTICE,BB8 0JZ,53.856587,-2.164492,QE1,NHS Lancashire and South Cumbria ICB,Y62,North West,E07000122,Pendle,12753.0162,14607.67883,16429.20388,16190.18808,13668.25274,17723.44328,15534.74992,14893.69972,13235.6201,13908.79358
P81732,HARAMBEE SURGERY,BB8 8QU,53.847709,-2.136792,QE1,NHS Lancashire and South Cumbria ICB,Y62,North West,E07000122,Pendle,4656.058368,4962.25085,4708.251026,3619.344972,3977.602663,4523.140981,5075.128863,4561.724738,4698.485918,4672.184177
P81070,PENDLE VIEW MEDICAL CTRE,BB9 5RZ,53.826033,-2.232234,QE1,NHS Lancashire and South Cumbria ICB,Y62,North West,E07000122,Pendle,8217.926608,9302.887162,11417.98336,8443.505876,9522.714416,7492.514141,9914.60641,9004.491325,8599.895658,8433.78843
P81032,REEDYFORD HLTH CARE GROUP,BB9 7SR,53.838042,-2.21885,QE1,NHS Lancashire and South Cumbria ICB,Y62,North West,E07000122,Pendle,14422.49043,15721.5104,17656.21946,16596.63222,16901.52388,19354.14031,16768.96994,16050.9287,14900.65151,15568.67483
P81123,PWE PENDLE VALLEY MILL,BB9 7SR,53.838042,-2.21885,QE1,NHS Lancashire and South Cumbria ICB,Y62,North West,E07000122,Pendle,13052.90944,12565.4338,12079.45737,17031.86219,15257.25114,17897.14089,13801.7588,13418.58755,11673.58617,12607.11938
P81170,NELSON MEDICAL PRACTICE,BB9 7SR,53.838042,-2.21885,QE1,NHS Lancashire and South Cumbria ICB,Y62,North West,E07000122,Pendle,10965.48436,8637.0118,6726.219084,11236.53046,15431.50123,16930.26777,9100.547403,9665.631972,9973.818649,11017.28602
P81731,DR JEHANGIR (SH),BB9 7SR,53.838042,-2.21885,QE1,NHS Lancashire and South Cumbria ICB,Y62,North West,E07000122,Pendle,2654.654016,2402.277913,2586.084584,2602.907543,3058.365808,3949.051988,2572.372029,2572.981694,2487.67546,2706.881939
P81736,WHITEFIELD HEALTHCARE,BB9 7SR,53.838042,-2.21885,QE1,NHS Lancashire and South Cumbria ICB,Y62,North West,E07000122,Pendle,4092.844069,3646.199756,3405.942101,3924.481176,5239.69908,5937.62442,4068.726317,3879.564707,3786.417741,4109.098743
P81757,BARROWFORD SURGERY,BB9 8QP,53.848531,-2.223784,QE1,NHS Lancashire and South Cumbria ICB,Y62,North West,E07000122,Pendle,3563.254725,3635.805124,3664.543529,2481.25243,3113.927914,2872.605359,3897.172602,3322.559981,3606.053551,3496.036323
B83657,BEVAN COMMUNITY BENEFIT SOCIETY,BD1 3LS,53.795581,-1.753352,QWO,NHS West Yorkshire ICB,Y63,North East and Yorkshire,E08000032,Bradford,5985.206981,4969.247291,1707.68619,16812.62778,6295.483054,13304.80671,4059.980435,6716.551638,5434.410156,6614.969639
Y07377,THE YORKSHIRE GATEWAY - BEVAN HC,BD1 3LS,53.795581,-1.753352,QOQ,NHS Humber and North Yorkshire ICB,Y63,North East and Yorkshire,E08000032,Bradford,203.2391321,93.15412345,63.96416584,268.7275741,0,153.4975183,87.43301006,111.9225763,141.5681587,143.3575627
Y08186,BEVAN HEALTH INCLUSION SERVICE WAKEFIELD,BD1 3LS,53.795581,-1.753352,QWO,NHS West Yorkshire ICB,Y63,North East and Yorkshire,E08000032,Bradford,24.9842892,15.76827498,7.151127976,31.67032286,18.27531602,35.14467629,16.57410186,18.7615221,37.00246514,36.72379681
B83062,ASHCROFT SURGERY,BD10 0JE,53.823809,-1.711352,QWO,NHS West Yorkshire ICB,Y63,North East and Yorkshire,E08000032,Bradford,8966.225542,9037.595534,8402.419296,9066.121348,11304.9297,17029.87024,9512.558813,9603.270159,9232.873254,10402.4228
B83018,IDLE MEDICAL CENTRE,BD10 8RU,53.836169,-1.734147,QWO,NHS West Yorkshire ICB,Y63,North East and Yorkshire,E08000032,Bradford,12573.27663,12837.43283,13267.88203,11140.3684,13918.11487,12507.88542,12787.20417,12235.8065,12524.43547,12521.95296
B83054,HAIGH HALL MEDICAL PRACTICE,BD10 9AZ,53.831119,-1.715247,QWO,NHS West Yorkshire ICB,Y63,North East and Yorkshire,E08000032,Bradford,6335.049072,6330.796052,6584.238748,6791.111701,8320.756489,8180.846649,6552.801884,6470.472544,6365.267158,6637.604082
